stop_id,stop_name,stop_lat,stop_lon,zone_id,stop_url,location_type,parent_station,wheelchair_boarding,stop_code
WR,West Harbour GO,43.266775,-79.866222,18,https://www.gotransit.com/en/stations-stops-parking/find-a-station-or-stop/results?stationCode=WR,0,,1,
WH,Whitby GO,43.86484,-78.93818,93,https://www.gotransit.com/en/stations-stops-parking/find-a-station-or-stop/results?stationCode=WH,0,,1,
WE,Weston GO,43.70022,-79.514671,04,https://www.gotransit.com/en/stations-stops-parking/find-a-station-or-stop/results?stationCode=WE,0,,1,
UN,Union Station,43.645195,-79.3806,02,https://www.gotransit.com/en/stations-stops-parking/find-a-station-or-stop/results?stationCode=UN,0,,1,
UI,Unionville GO,43.851689,-79.314332,71,https://www.gotransit.com/en/stations-stops-parking/find-a-station-or-stop/results?stationCode=UI,0,,1,
ST,Stouffville GO,43.970924,-79.249989,74,https://www.gotransit.com/en/stations-stops-parking/find-a-station-or-stop/results?stationCode=ST,0,,1,
SR,Streetsville GO,43.575584,-79.70882,21,https://www.gotransit.com/en/stations-stops-parking/find-a-station-or-stop/results?stationCode=SR,0,,1,
SM,St. Marys VIA,43.261714,-81.136643,48,https://www.gotransit.com/en/stations-stops-parking/find-a-station-or-stop/results?stationCode=SM,0,,2,
SF,Stratford VIA,43.364347,-80.972181,47,https://www.gotransit.com/en/stations-stops-parking/find-a-station-or-stop/results?stationCode=SF,0,,2,
SC,Scarborough GO,43.716945,-79.254722,06,https://www.gotransit.com/en/stations-stops-parking/find-a-station-or-stop/results?stationCode=SC,0,,1,
RU,Rutherford GO,43.838487,-79.498819,61,https://www.gotransit.com/en/stations-stops-parking/find-a-station-or-stop/results?stationCode=RU,0,,1,
RO,Rouge Hill GO,43.780375,-79.130646,09,https://www.gotransit.com/en/stations-stops-parking/find-a-station-or-stop/results?stationCode=RO,0,,1,
RI,Richmond Hill GO,43.874307,-79.426167,50,https://www.gotransit.com/en/stations-stops-parking/find-a-station-or-stop/results?stationCode=RI,0,,1,
PO,Port Credit GO,43.555999,-79.586881,10,https://www.gotransit.com/en/stations-stops-parking/find-a-station-or-stop/results?stationCode=PO,0,,1,
PIN,Pickering GO,43.831576,-79.084594,91,https://www.gotransit.com/en/stations-stops-parking/find-a-station-or-stop/results?stationCode=PIN,0,,1,
PA,Pearson Airport Terminal 1,43.6821671,-79.6132584,31,https://www.gotransit.com/en/stations-stops-parking/find-a-station-or-stop/results?stationCode=PA,0,,1,
OS,Durham College Oshawa GO Rail,43.871004,-78.884807,94,https://www.gotransit.com/en/stations-stops-parking/find-a-station-or-stop/results?stationCode=OS,0,,1,
OR,Oriole GO,43.765518,-79.364275,05,https://www.gotransit.com/en/stations-stops-parking/find-a-station-or-stop/results?stationCode=OR,0,,1,
OL,Old Cummer GO,43.793703,-79.371403,05,https://www.gotransit.com/en/stations-stops-parking/find-a-station-or-stop/results?stationCode=OL,0,,1,
OA,Oakville GO,43.455594,-79.682242,13,https://www.gotransit.com/en/stations-stops-parking/find-a-station-or-stop/results?stationCode=OA,0,,1,
NI,Niagara Falls GO,43.108882,-79.063319,84,https://www.gotransit.com/en/stations-stops-parking/find-a-station-or-stop/results?stationCode=NI,0,,1,
NE,Newmarket GO,44.060426,-79.459289,64,https://www.gotransit.com/en/stations-stops-parking/find-a-station-or-stop/results?stationCode=NE,0,,1,
MR,Markham GO,43.882691,-79.262469,72,https://www.gotransit.com/en/stations-stops-parking/find-a-station-or-stop/results?stationCode=MR,0,,1,
MP,Maple GO,43.859481,-79.506984,61,https://www.gotransit.com/en/stations-stops-parking/find-a-station-or-stop/results?stationCode=MP,0,,1,
MO,Mount Pleasant GO,43.6749763,-79.8221817,34,https://www.gotransit.com/en/stations-stops-parking/find-a-station-or-stop/results?stationCode=MO,0,,1,
ML,Milton GO,43.52364,-79.867172,24,https://www.gotransit.com/en/stations-stops-parking/find-a-station-or-stop/results?stationCode=ML,0,,1,
MK,Milliken GO,43.823227,-79.301785,70,https://www.gotransit.com/en/stations-stops-parking/find-a-station-or-stop/results?stationCode=MK,0,,1,
MJ,Mount Joy GO,43.900521,-79.26313,73,https://www.gotransit.com/en/stations-stops-parking/find-a-station-or-stop/results?stationCode=MJ,0,,1,
MI,Mimico GO,43.616411,-79.497762,79,https://www.gotransit.com/en/stations-stops-parking/find-a-station-or-stop/results?stationCode=MI,0,,2,
ME,Meadowvale GO,43.597566,-79.754328,22,https://www.gotransit.com/en/stations-stops-parking/find-a-station-or-stop/results?stationCode=ME,0,,1,
MA,Malton GO,43.705153,-79.63823,31,https://www.gotransit.com/en/stations-stops-parking/find-a-station-or-stop/results?stationCode=MA,0,,1,
LS,Lisgar GO,43.590791,-79.788539,23,https://www.gotransit.com/en/stations-stops-parking/find-a-station-or-stop/results?stationCode=LS,0,,1,
LO,Long Branch GO,43.591317,-79.546149,59,https://www.gotransit.com/en/stations-stops-parking/find-a-station-or-stop/results?stationCode=LO,0,,2,
LN,London VIA,42.981586,-81.244272,49,https://www.gotransit.com/en/stations-stops-parking/find-a-station-or-stop/results?stationCode=LN,0,,1,
LI,Old Elm GO,43.995416,-79.233457,74,https://www.gotransit.com/en/stations-stops-parking/find-a-station-or-stop/results?stationCode=LI,0,,1,
LA,Langstaff GO,43.838546,-79.423139,60,https://www.gotransit.com/en/stations-stops-parking/find-a-station-or-stop/results?stationCode=LA,0,,1,
KP,Kipling GO,43.636955,-79.536287,03,https://www.gotransit.com/en/stations-stops-parking/find-a-station-or-stop/results?stationCode=KP,0,,2,
KI,Kitchener GO,43.455686,-80.49313,27,https://www.gotransit.com/en/stations-stops-parking/find-a-station-or-stop/results?stationCode=KI,0,,1,
KE,Kennedy GO,43.733045,-79.262706,77,https://www.gotransit.com/en/stations-stops-parking/find-a-station-or-stop/results?stationCode=KE,0,,1,
KC,King City GO,43.920037,-79.526886,62,https://www.gotransit.com/en/stations-stops-parking/find-a-station-or-stop/results?stationCode=KC,0,,1,
HA,Hamilton GO Centre,43.253284,-79.869192,18,https://www.gotransit.com/en/stations-stops-parking/find-a-station-or-stop/results?stationCode=HA,0,,1,
GU,Guildwood GO,43.755272,-79.198252,08,https://www.gotransit.com/en/stations-stops-parking/find-a-station-or-stop/results?stationCode=GU,0,,1,
GO,Gormley GO,43.941617,-79.399033,78,https://www.gotransit.com/en/stations-stops-parking/find-a-station-or-stop/results?stationCode=GO,0,,1,
GL,Guelph Central GO,43.544353,-80.246917,39,https://www.gotransit.com/en/stations-stops-parking/find-a-station-or-stop/results?stationCode=GL,0,,1,
GE,Georgetown GO,43.655373,-79.919054,35,https://www.gotransit.com/en/stations-stops-parking/find-a-station-or-stop/results?stationCode=GE,0,,1,
EX,Exhibition GO,43.635549,-79.418927,02,https://www.gotransit.com/en/stations-stops-parking/find-a-station-or-stop/results?stationCode=EX,0,,1,
ET,Etobicoke North GO,43.706172,-79.563506,04,https://www.gotransit.com/en/stations-stops-parking/find-a-station-or-stop/results?stationCode=ET,0,,1,
ER,Erindale GO,43.567235,-79.668506,40,https://www.gotransit.com/en/stations-stops-parking/find-a-station-or-stop/results?stationCode=ER,0,,1,
EG,Eglinton GO,43.739621,-79.23231,08,https://www.gotransit.com/en/stations-stops-parking/find-a-station-or-stop/results?stationCode=EG,0,,2,
EA,East Gwillimbury GO,44.077996,-79.455776,44,https://www.gotransit.com/en/stations-stops-parking/find-a-station-or-stop/results?stationCode=EA,0,,1,
DW,Downsview Park GO,43.7536333,-79.47835,19,https://www.gotransit.com/en/stations-stops-parking/find-a-station-or-stop/results?stationCode=DW,0,,1,
DI,Dixie GO,43.608022,-79.577762,11,https://www.gotransit.com/en/stations-stops-parking/find-a-station-or-stop/results?stationCode=DI,0,,1,
DA,Danforth GO,43.686462,-79.300358,06,https://www.gotransit.com/en/stations-stops-parking/find-a-station-or-stop/results?stationCode=DA,0,,1,
CO,Cooksville GO,43.582973,-79.623695,11,https://www.gotransit.com/en/stations-stops-parking/find-a-station-or-stop/results?stationCode=CO,0,,1,
CL,Clarkson GO,43.513127,-79.633206,12,https://www.gotransit.com/en/stations-stops-parking/find-a-station-or-stop/results?stationCode=CL,0,,1,
CE,Centennial GO,43.873601,-79.289211,72,https://www.gotransit.com/en/stations-stops-parking/find-a-station-or-stop/results?stationCode=CE,0,,1,
BU,Burlington GO,43.341265,-79.809141,16,https://www.gotransit.com/en/stations-stops-parking/find-a-station-or-stop/results?stationCode=BU,0,,1,
BR,Brampton GO,43.6869087,-79.7628632,33,https://www.gotransit.com/en/stations-stops-parking/find-a-station-or-stop/results?stationCode=BR,0,,1,
BO,Bronte GO,43.416774,-79.722294,14,https://www.gotransit.com/en/stations-stops-parking/find-a-station-or-stop/results?stationCode=BO,0,,1,
BM,Bloomington GO,43.975949,-79.397258,98,https://www.gotransit.com/en/stations-stops-parking/find-a-station-or-stop/results?stationCode=BM,0,,1,
BL,Bloor GO,43.656928,-79.450192,01,https://www.gotransit.com/en/stations-stops-parking/find-a-station-or-stop/results?stationCode=BL,0,,1,
BE,Bramalea GO,43.7022591,-79.6887512,32,https://www.gotransit.com/en/stations-stops-parking/find-a-station-or-stop/results?stationCode=BE,0,,1,
BD,Bradford GO,44.116513,-79.555394,65,https://www.gotransit.com/en/stations-stops-parking/find-a-station-or-stop/results?stationCode=BD,0,,1,
BA,Barrie South GO,44.35112,-79.627441,68,https://www.gotransit.com/en/stations-stops-parking/find-a-station-or-stop/results?stationCode=BA,0,,1,
AU,Aurora GO,44.000758,-79.459725,63,https://www.gotransit.com/en/stations-stops-parking/find-a-station-or-stop/results?stationCode=AU,0,,1,
AP,Appleby GO,43.379429,-79.760991,15,https://www.gotransit.com/en/stations-stops-parking/find-a-station-or-stop/results?stationCode=AP,0,,1,
AL,Aldershot GO,43.313385,-79.855659,17,https://www.gotransit.com/en/stations-stops-parking/find-a-station-or-stop/results?stationCode=AL,0,,1,
AJ,Ajax GO,43.847766,-79.041372,92,https://www.gotransit.com/en/stations-stops-parking/find-a-station-or-stop/results?stationCode=AJ,0,,1,
AG,Agincourt GO,43.78611,-79.284385,07,https://www.gotransit.com/en/stations-stops-parking/find-a-station-or-stop/results?stationCode=AG,0,,1,
AD,Allandale Waterfront GO,44.374139,-79.687858,69,https://www.gotransit.com/en/stations-stops-parking/find-a-station-or-stop/results?stationCode=AD,0,,1,
AC,Acton GO,43.6338043,-80.034111,37,https://www.gotransit.com/en/stations-stops-parking/find-a-station-or-stop/results?stationCode=AC,0,,1,
08044,Bramalea GO Bus,43.702138,-79.690011,32,https://www.gotransit.com/en/stations-stops-parking/find-a-station-or-stop/results?stationCode=08044,0,,1,108044
08043,Cornell Bus Terminal,43.879761,-79.232535,86,https://www.gotransit.com/en/stations-stops-parking/find-a-station-or-stop/results?stationCode=08043,0,,2,108043
08042,Bramalea GO Bus,43.702137,-79.690014,32,https://www.gotransit.com/en/stations-stops-parking/find-a-station-or-stop/results?stationCode=08042,0,,2,108042
08041,Bramalea GO Bus,43.702137,-79.690021,32,https://www.gotransit.com/en/stations-stops-parking/find-a-station-or-stop/results?stationCode=08041,0,,2,108041
08039,Regional Rd. 25 @ Hwy. 401 Park & Ride,43.527742,-79.903491,24,https://www.gotransit.com/en/stations-stops-parking/find-a-station-or-stop/results?stationCode=08039,0,,1,108039
08032,Bramalea Bus Terminal,43.7186356,-79.7205734,32,https://www.gotransit.com/en/stations-stops-parking/find-a-station-or-stop/results?stationCode=08032,0,,1,108032
08030,Williams Pkwy. @ Hwy. 410 Park & Ride,43.71671,-79.751277,32,https://www.gotransit.com/en/stations-stops-parking/find-a-station-or-stop/results?stationCode=08030,0,,1,108030
08029,University of Toronto Scarborough,43.7843628,-79.1851273,89,https://www.gotransit.com/en/stations-stops-parking/find-a-station-or-stop/results?stationCode=08029,0,,1,108029
08025,Trafalgar Rd. @ Hwy. 407 Park & Ride,43.505837,-79.74487,13,https://www.gotransit.com/en/stations-stops-parking/find-a-station-or-stop/results?stationCode=08025,0,,1,108025
08024,Trafalgar Rd. @ Hwy. 407 Park & Ride,43.506226,-79.745384,13,https://www.gotransit.com/en/stations-stops-parking/find-a-station-or-stop/results?stationCode=08024,0,,1,108024
08021,Hwy. 2 @ Hwy. 35/115 Park & Ride,43.912918,-78.613016,97,https://www.gotransit.com/en/stations-stops-parking/find-a-station-or-stop/results?stationCode=08021,0,,1,108021
08012,Malton GO Bus,43.705143,-79.637825,31,https://www.gotransit.com/en/stations-stops-parking/find-a-station-or-stop/results?stationCode=08012,0,,1,108012
08006,Bradford GO Bus,44.116654,-79.555752,65,https://www.gotransit.com/en/stations-stops-parking/find-a-station-or-stop/results?stationCode=08006,0,,1,108006
08002,Allandale Waterfront GO Bus,44.373817,-79.689441,69,https://www.gotransit.com/en/stations-stops-parking/find-a-station-or-stop/results?stationCode=08002,0,,1,108002
02816,Scarborough Centre Bus Terminal,43.77486,-79.26088,07,https://www.gotransit.com/en/stations-stops-parking/find-a-station-or-stop/results?stationCode=02816,0,,2,102816
02815,Cornell Bus Terminal,43.879742,-79.232527,86,https://www.gotransit.com/en/stations-stops-parking/find-a-station-or-stop/results?stationCode=02815,0,,2,102815
02814,St. Paul St. W. @ Leeper St. (St. Catharines GO),43.146856,-79.254428,83,https://www.gotransit.com/en/stations-stops-parking/find-a-station-or-stop/results?stationCode=02814,0,,1,102814
02813,St. Paul St. W. @ Great Western St. (St. Catharines GO),43.147576,-79.253327,83,https://www.gotransit.com/en/stations-stops-parking/find-a-station-or-stop/results?stationCode=02813,0,,1,102813
02809,Guelph St. @ Mountainview Rd. S.,43.632898,-79.902022,35,https://www.gotransit.com/en/stations-stops-parking/find-a-station-or-stop/results?stationCode=02809,0,,1,102809
02808,Main St. S. @ MacLellan St.,43.608965,-80.130286,38,https://www.gotransit.com/en/stations-stops-parking/find-a-station-or-stop/results?stationCode=02808,0,,1,102808
02807,Guelph St. W. @ Lakeview Ave.,43.632898,-80.05002,37,https://www.gotransit.com/en/stations-stops-parking/find-a-station-or-stop/results?stationCode=02807,0,,1,102807
02806,Tenth Ln. @ Main St.,43.975499,-79.231476,74,https://www.gotransit.com/en/stations-stops-parking/find-a-station-or-stop/results?stationCode=02806,0,,1,102806
02804,Main St. N. @ Henry St.,43.65194,-79.92927,35,https://www.gotransit.com/en/stations-stops-parking/find-a-station-or-stop/results?stationCode=02804,0,,2,102804
02803,Main St. N. @ George St.,43.651519,-79.928908,35,https://www.gotransit.com/en/stations-stops-parking/find-a-station-or-stop/results?stationCode=02803,0,,2,102803
02802,Moutainview Rd. N. @ Maple Ave.,43.654996,-79.909971,35,https://www.gotransit.com/en/stations-stops-parking/find-a-station-or-stop/results?stationCode=02802,0,,1,102802
02801,Maple Ave. @ Mountainview Rd. N.,43.655002,-79.911197,35,https://www.gotransit.com/en/stations-stops-parking/find-a-station-or-stop/results?stationCode=02801,0,,2,102801
02800,University of Waterloo Terminal,43.474444,-80.540546,27,https://www.gotransit.com/en/stations-stops-parking/find-a-station-or-stop/results?stationCode=02800,0,,1,102800
02799,University of Waterloo Terminal,43.474393,-80.539507,27,https://www.gotransit.com/en/stations-stops-parking/find-a-station-or-stop/results?stationCode=02799,0,,1,102799
02798,Brock St. @ Whitburn St.,43.9087575158356,-78.9549597455002,93,https://www.gotransit.com/en/stations-stops-parking/find-a-station-or-stop/results?stationCode=02798,0,,1,102798
02797,Brock St. @ James Rowe Dr.,43.9027520822907,-78.9523885737843,93,https://www.gotransit.com/en/stations-stops-parking/find-a-station-or-stop/results?stationCode=02797,0,,1,102797
02796,Brock St. @ Joy Thompson Ave.,43.9125735294326,-78.9564891762091,93,https://www.gotransit.com/en/stations-stops-parking/find-a-station-or-stop/results?stationCode=02796,0,,1,102796
02795,Brock St. @ Timber Mill Ave.,43.9121957951938,-78.9565120700745,93,https://www.gotransit.com/en/stations-stops-parking/find-a-station-or-stop/results?stationCode=02795,0,,1,102795
02794,Brock St. @ Woodlands Ave.,43.9091581594527,-78.9550095351836,93,https://www.gotransit.com/en/stations-stops-parking/find-a-station-or-stop/results?stationCode=02794,0,,1,102794
02793,Brock St. @ Dryden Blvd.,43.9035535425958,-78.9525478776878,93,https://www.gotransit.com/en/stations-stops-parking/find-a-station-or-stop/results?stationCode=02793,0,,1,102793
02791,Derry Rd. @ Trafalgar Rd.,43.5554510598521,-79.8080835622808,23,https://www.gotransit.com/en/stations-stops-parking/find-a-station-or-stop/results?stationCode=02791,0,,1,102791
02790,Derry Rd. @ Trafalgar Rd.,43.5550510528042,-79.8081483979709,23,https://www.gotransit.com/en/stations-stops-parking/find-a-station-or-stop/results?stationCode=02790,0,,1,102790
02789,Renforth Transitway Station,43.6630867554875,-79.59128814485,25,https://www.gotransit.com/en/stations-stops-parking/find-a-station-or-stop/results?stationCode=02789,0,,1,102789
02788,Erin Mills Pkwy. @ Credit Valley Rd.,43.5575314698075,-79.7045888546231,21,https://www.gotransit.com/en/stations-stops-parking/find-a-station-or-stop/results?stationCode=02788,0,,1,102788
02787,Simcoe St. N. @ Windfields Farm Dr.,43.963642295078,-78.9029293914662,88,https://www.gotransit.com/en/stations-stops-parking/find-a-station-or-stop/results?stationCode=02787,0,,1,102787
02786,Trafalgar Rd. @ Rosegate Way,43.482746,-79.713083,13,https://www.gotransit.com/en/stations-stops-parking/find-a-station-or-stop/results?stationCode=02786,0,,1,102786
02785,Trafalgar Rd. @ Glenashton Dr.,43.480786,-79.709716,13,https://www.gotransit.com/en/stations-stops-parking/find-a-station-or-stop/results?stationCode=02785,0,,1,102785
02784,Trafalgar Rd. @ Briarhall Gate,43.477566,-79.705312,13,https://www.gotransit.com/en/stations-stops-parking/find-a-station-or-stop/results?stationCode=02784,0,,1,102784
02783,Trafalgar Rd. @ Upper Middle Rd. E.,43.475362,-79.702112,13,https://www.gotransit.com/en/stations-stops-parking/find-a-station-or-stop/results?stationCode=02783,0,,1,102783
02782,Simcoe St. N. @ Windfields Farm Dr.,43.963039,-78.902909,88,https://www.gotransit.com/en/stations-stops-parking/find-a-station-or-stop/results?stationCode=02782,0,,1,102782
02781,Simcoe St. N. @ Britannia Ave.,43.955632,-78.899736,88,https://www.gotransit.com/en/stations-stops-parking/find-a-station-or-stop/results?stationCode=02781,0,,1,102781
02780,Brock University,43.118136,-79.249325,83,https://www.gotransit.com/en/stations-stops-parking/find-a-station-or-stop/results?stationCode=02780,0,,1,102780
02779,Baldwin St. @ Hwy. 407 Park & Ride,43.9449147110778,-78.9599680461866,51,https://www.gotransit.com/en/stations-stops-parking/find-a-station-or-stop/results?stationCode=02779,0,,1,102779
02778,Kipling Bus Terminal,43.635688,-79.538441,03,https://www.gotransit.com/en/stations-stops-parking/find-a-station-or-stop/results?stationCode=02778,0,,1,102778
02777,Centennial College,43.785812,-79.229268,89,https://www.gotransit.com/en/stations-stops-parking/find-a-station-or-stop/results?stationCode=02777,0,,1,102777
02775,Port Credit GO,43.555598,-79.587457,10,https://www.gotransit.com/en/stations-stops-parking/find-a-station-or-stop/results?stationCode=02775,0,,1,102775
02774,Weber St. W. @ College St.,43.4537408852006,-80.492057895107,27,https://www.gotransit.com/en/stations-stops-parking/find-a-station-or-stop/results?stationCode=02774,0,,2,102774
02773,Weber St. W. @ Victoria St. N.,43.4546544395105,-80.4933913283414,27,https://www.gotransit.com/en/stations-stops-parking/find-a-station-or-stop/results?stationCode=02773,0,,2,102773
02772,Yonge St. @ Sheppard Ave.,43.762187996328,-79.4109345055581,05,https://www.gotransit.com/en/stations-stops-parking/find-a-station-or-stop/results?stationCode=02772,0,,1,102772
02771,Yonge St. @ Hwy. 407,43.8384664250903,-79.4293096916894,60,https://www.gotransit.com/en/stations-stops-parking/find-a-station-or-stop/results?stationCode=02771,0,,1,102771
02768,Yonge St. @ Westwood Ln.,43.8445789374929,-79.4312068959128,60,https://www.gotransit.com/en/stations-stops-parking/find-a-station-or-stop/results?stationCode=02768,0,,2,102768
02767,Bloomington GO,43.975523,-79.396884,98,https://www.gotransit.com/en/stations-stops-parking/find-a-station-or-stop/results?stationCode=02767,0,,1,102767
02766,Trafalgar Rd. @ McCraney St. E.,43.466272,-79.690048,13,https://www.gotransit.com/en/stations-stops-parking/find-a-station-or-stop/results?stationCode=02766,0,,2,102766
02765,Trafalgar Rd. @ Upper Middle Rd. E.,43.474533,-79.701471,13,https://www.gotransit.com/en/stations-stops-parking/find-a-station-or-stop/results?stationCode=02765,0,,2,102765
02764,Trafalgar Rd. @ River Oaks Blvd. E.,43.47697,-79.70504,13,https://www.gotransit.com/en/stations-stops-parking/find-a-station-or-stop/results?stationCode=02764,0,,2,102764
02763,Trafalgar Rd. @ Glenashton Dr.,43.48015,-79.709384,13,https://www.gotransit.com/en/stations-stops-parking/find-a-station-or-stop/results?stationCode=02763,0,,2,102763
02761,Brock St. N. @ Kenneth Hobbs Ave.,43.900662,-78.951231,93,https://www.gotransit.com/en/stations-stops-parking/find-a-station-or-stop/results?stationCode=02761,0,,1,102761
02760,Brock St. N. @ McCartney Ave.,43.900086,-78.951303,93,https://www.gotransit.com/en/stations-stops-parking/find-a-station-or-stop/results?stationCode=02760,0,,1,102760
02759,King St. W. @ Queen St. N.,43.25943,-79.878547,18,https://www.gotransit.com/en/stations-stops-parking/find-a-station-or-stop/results?stationCode=02759,0,,1,102759
02758,Hwy. 47 @ Paisley Ln.,44.0177983588276,-79.2319480136823,75,https://www.gotransit.com/en/stations-stops-parking/find-a-station-or-stop/results?stationCode=02758,0,,2,102758
02757,Consumers Rd. @ William Sylvester Dr.,43.770562,-79.330273,07,https://www.gotransit.com/en/stations-stops-parking/find-a-station-or-stop/results?stationCode=02757,0,,1,102757
02756,Consumers Rd. @ William Sylvester Dr.,43.770398,-79.33023,07,https://www.gotransit.com/en/stations-stops-parking/find-a-station-or-stop/results?stationCode=02756,0,,1,102756
02753,Cooksville GO Bus,43.582296,-79.624506,11,https://www.gotransit.com/en/stations-stops-parking/find-a-station-or-stop/results?stationCode=02753,0,,1,102753
02752,Cooksville GO Bus,43.5822961767171,-79.6245055812486,11,https://www.gotransit.com/en/stations-stops-parking/find-a-station-or-stop/results?stationCode=02752,0,,1,102752
02751,Cooksville GO Bus,43.582296,-79.624506,11,https://www.gotransit.com/en/stations-stops-parking/find-a-station-or-stop/results?stationCode=02751,0,,1,102751
02750,Main St. S. @ Clarence St.,43.6803567961439,-79.7526657450494,33,https://www.gotransit.com/en/stations-stops-parking/find-a-station-or-stop/results?stationCode=02750,0,,1,102750
02749,Simcoe St. S. @ Athol St. E.,43.896376,-78.862941,94,https://www.gotransit.com/en/stations-stops-parking/find-a-station-or-stop/results?stationCode=02749,0,,1,102749
02748,Centre St. S. @ Athol St. W.,43.89617,-78.865335,94,https://www.gotransit.com/en/stations-stops-parking/find-a-station-or-stop/results?stationCode=02748,0,,1,102748
02747,King Ave. W. @ Rudell Rd.,43.914758,-78.600169,97,https://www.gotransit.com/en/stations-stops-parking/find-a-station-or-stop/results?stationCode=02747,0,,1,102747
02746,Main St. S. @ Nanwood Dr.,43.676796,-79.747726,33,https://www.gotransit.com/en/stations-stops-parking/find-a-station-or-stop/results?stationCode=02746,0,,1,102746
02745,Main St. N. @ Williams Pkwy.,43.6983315029567,-79.7768451099263,33,https://www.gotransit.com/en/stations-stops-parking/find-a-station-or-stop/results?stationCode=02745,0,,1,102745
02744,Yonge St. @ Little Ave.,44.36632,-79.662611,68,https://www.gotransit.com/en/stations-stops-parking/find-a-station-or-stop/results?stationCode=02744,0,,1,102744
02743,Green Lane E. @ Yonge St.,44.073514,-79.481434,64,https://www.gotransit.com/en/stations-stops-parking/find-a-station-or-stop/results?stationCode=02743,0,,1,102743
02742,Prospect St. @ Davis Dr.,44.05972,-79.453897,64,https://www.gotransit.com/en/stations-stops-parking/find-a-station-or-stop/results?stationCode=02742,0,,1,102742
02741,Davis Dr. @ Prospect St.,44.060566,-79.454395,64,https://www.gotransit.com/en/stations-stops-parking/find-a-station-or-stop/results?stationCode=02741,0,,1,102741
02739,Rathburn Rd. W. @ Perivale Rd.,43.575505,-79.664227,40,https://www.gotransit.com/en/stations-stops-parking/find-a-station-or-stop/results?stationCode=02739,0,,1,102739
02738,Rathburn Rd. W. @ Perivale Rd.,43.575855,-79.664277,40,https://www.gotransit.com/en/stations-stops-parking/find-a-station-or-stop/results?stationCode=02738,0,,1,102738
02737,Derry Rd. @ Sauve St.,43.524441,-79.842406,24,https://www.gotransit.com/en/stations-stops-parking/find-a-station-or-stop/results?stationCode=02737,0,,1,102737
02736,Derry Rd. @ Sauve St.,43.523968,-79.842312,24,https://www.gotransit.com/en/stations-stops-parking/find-a-station-or-stop/results?stationCode=02736,0,,1,102736
02735,Winchester Rd. @ Simcoe St.,43.955004,-78.954569,51,https://www.gotransit.com/en/stations-stops-parking/find-a-station-or-stop/results?stationCode=02735,0,,1,102735
02734,Winchester Rd. @ Thickson Rd.,43.957485,-78.942565,51,https://www.gotransit.com/en/stations-stops-parking/find-a-station-or-stop/results?stationCode=02734,0,,1,102734
02733,Winchester Rd. @ Thickson Rd.,43.957375,-78.943983,51,https://www.gotransit.com/en/stations-stops-parking/find-a-station-or-stop/results?stationCode=02733,0,,1,102733
02732,Davis Dr. W. @ Eagle St. W.,44.053908,-79.485428,64,https://www.gotransit.com/en/stations-stops-parking/find-a-station-or-stop/results?stationCode=02732,0,,1,102732
02731,Davis Dr. W. @ Eagle St. W.,44.053617,-79.485558,64,https://www.gotransit.com/en/stations-stops-parking/find-a-station-or-stop/results?stationCode=02731,0,,1,102731
02730,Centennial Pkwy N. @ QEW (Confederation) Park & Ride,43.2425830614163,-79.7599571072281,80,https://www.gotransit.com/en/stations-stops-parking/find-a-station-or-stop/results?stationCode=02730,0,,1,102730
02728,Bramalea GO Bus,43.7015110998905,-79.6932467645138,32,https://www.gotransit.com/en/stations-stops-parking/find-a-station-or-stop/results?stationCode=02728,0,,1,102728
02726,Bayview Ave. @ River Ridge Blvd.,44.009295,-79.444537,63,https://www.gotransit.com/en/stations-stops-parking/find-a-station-or-stop/results?stationCode=02726,0,,1,102726
02725,Bayview Ave. @ River Ridge Blvd.,44.009748,-79.445043,63,https://www.gotransit.com/en/stations-stops-parking/find-a-station-or-stop/results?stationCode=02725,0,,1,102725
02722,Main St. @ Mill St. E.,43.6301210479395,-80.0419071434871,37,https://www.gotransit.com/en/stations-stops-parking/find-a-station-or-stop/results?stationCode=02722,0,,1,102722
02721,Gordon St. @ Stone Rd.,43.5272921676036,-80.2256214441709,39,https://www.gotransit.com/en/stations-stops-parking/find-a-station-or-stop/results?stationCode=02721,0,,1,102721
02720,Elizabeth St. @ Victoria Rd.,43.5552971023133,-80.2303018528565,39,https://www.gotransit.com/en/stations-stops-parking/find-a-station-or-stop/results?stationCode=02720,0,,1,102720
02719,York St. @ 800 York St.,43.5584831140902,-80.2149901373342,39,https://www.gotransit.com/en/stations-stops-parking/find-a-station-or-stop/results?stationCode=02719,0,,1,102719
02718,Gordon St. @ Kortright Rd.,43.5224020262207,-80.2134931638836,39,https://www.gotransit.com/en/stations-stops-parking/find-a-station-or-stop/results?stationCode=02718,0,,2,102718
02717,Gordon St. @ Clairfields Dr. E.,43.5057636408486,-80.1943022849076,39,https://www.gotransit.com/en/stations-stops-parking/find-a-station-or-stop/results?stationCode=02717,0,,1,102717
02716,Courtice Rd. @ Baseline Rd. P&R,43.8860800890398,-78.7688846365461,95,https://www.gotransit.com/en/stations-stops-parking/find-a-station-or-stop/results?stationCode=02716,0,,1,102716
02715,First Ave. @ Front St. Park & Ride,43.884898,-78.85374,94,https://www.gotransit.com/en/stations-stops-parking/find-a-station-or-stop/results?stationCode=02715,0,,1,102715
02714,First Ave. @ Front St. Park & Ride,43.885019,-78.854257,94,https://www.gotransit.com/en/stations-stops-parking/find-a-station-or-stop/results?stationCode=02714,0,,1,102714
02713,Queen St. E. @ Centre St. S.,43.6909641992743,-79.7543903110508,33,https://www.gotransit.com/en/stations-stops-parking/find-a-station-or-stop/results?stationCode=02713,0,,1,102713
02712,Bovaird Dr. W. @ McLaughlin Rd. N.,43.6957585266119,-79.7981796900374,33,https://www.gotransit.com/en/stations-stops-parking/find-a-station-or-stop/results?stationCode=02712,0,,1,102712
02711,Major Mackenzie Dr. E. @ Hwy. 404,43.8827011632664,-79.3803716525566,50,https://www.gotransit.com/en/stations-stops-parking/find-a-station-or-stop/results?stationCode=02711,0,,1,102711
02710,Major Mackenzie Dr. E. @ Hwy. 404,43.8827741694863,-79.3804406287544,50,https://www.gotransit.com/en/stations-stops-parking/find-a-station-or-stop/results?stationCode=02710,0,,1,102710
02709,Yonge St. @ Finch Ave.,43.7808519429722,-79.416002462366,05,https://www.gotransit.com/en/stations-stops-parking/find-a-station-or-stop/results?stationCode=02709,0,,1,102709
02708,Hwy. 50 @ Castlemore Rd.,43.8022027763583,-79.6689430530202,56,https://www.gotransit.com/en/stations-stops-parking/find-a-station-or-stop/results?stationCode=02708,0,,1,102708
02706,Yonge St. @ Queen St.,44.0955808817404,-79.4901815817581,65,https://www.gotransit.com/en/stations-stops-parking/find-a-station-or-stop/results?stationCode=02706,0,,1,102706
02705,Winchester Rd. W. @ Lake Ridge Rd.,43.9404993537075,-79.016552197116,87,https://www.gotransit.com/en/stations-stops-parking/find-a-station-or-stop/results?stationCode=02705,0,,2,102705
02702,Kingston Rd. @ Westney Rd.,43.857678667214,-79.0409885998896,92,https://www.gotransit.com/en/stations-stops-parking/find-a-station-or-stop/results?stationCode=02702,0,,1,102702
02700,Trafalgar Rd. @ Dundas St.,43.4879119435482,-79.7199831176779,13,https://www.gotransit.com/en/stations-stops-parking/find-a-station-or-stop/results?stationCode=02700,0,,2,102700
02699,Hwy. 10 @ Travelled Rd.,43.8573969935826,-79.9922485935605,42,https://www.gotransit.com/en/stations-stops-parking/find-a-station-or-stop/results?stationCode=02699,0,,2,102699
02698,Victoria St. E. @ S. Blair St,43.8654558761237,-78.9209973861173,93,https://www.gotransit.com/en/stations-stops-parking/find-a-station-or-stop/results?stationCode=02698,0,,2,102698
02697,Victoria St. E. @ S. Blair St.,43.8653472462941,-78.9209650743573,93,https://www.gotransit.com/en/stations-stops-parking/find-a-station-or-stop/results?stationCode=02697,0,,2,102697
02696,Guelph St. @ Hall Rd.,43.6486902942995,-79.8765444720472,35,https://www.gotransit.com/en/stations-stops-parking/find-a-station-or-stop/results?stationCode=02696,0,,2,102696
02694,Bayview Ave. @ St. John's Sideroad,44.023461599752,-79.4476920600681,63,https://www.gotransit.com/en/stations-stops-parking/find-a-station-or-stop/results?stationCode=02694,0,,1,102694
02693,Bayview Ave. @ St. John's Sideroad,44.0237239494145,-79.4481818236578,64,https://www.gotransit.com/en/stations-stops-parking/find-a-station-or-stop/results?stationCode=02693,0,,2,102693
02692,Bayview Ave. @ Mulock Dr.,44.0410444955981,-79.4517586529434,64,https://www.gotransit.com/en/stations-stops-parking/find-a-station-or-stop/results?stationCode=02692,0,,1,102692
02691,Bayview Ave. @ Mulock Dr.,44.0414415652058,-79.4521589476021,64,https://www.gotransit.com/en/stations-stops-parking/find-a-station-or-stop/results?stationCode=02691,0,,1,102691
02690,Prospect St. @ Pearson St.,44.0493428055643,-79.4528843805226,64,https://www.gotransit.com/en/stations-stops-parking/find-a-station-or-stop/results?stationCode=02690,0,,1,102690
02689,Prospect St. @ Pearson St.,44.0496186238697,-79.453040727793,64,https://www.gotransit.com/en/stations-stops-parking/find-a-station-or-stop/results?stationCode=02689,0,,1,102689
02688,Burton Ave. @ Granville St.,44.3716585556774,-79.6905053283273,69,https://www.gotransit.com/en/stations-stops-parking/find-a-station-or-stop/results?stationCode=02688,0,,2,102688
02687,Burton Ave. @ Granville St.,44.3716444485243,-79.6911595701255,69,https://www.gotransit.com/en/stations-stops-parking/find-a-station-or-stop/results?stationCode=02687,0,,2,102687
02684,Simcoe St. @ Britannia Ave.,43.9558385161942,-78.8994952290358,88,https://www.gotransit.com/en/stations-stops-parking/find-a-station-or-stop/results?stationCode=02684,0,,2,102684
02683,Green Lane E. @ Yonge St.,44.073913,-79.481138,64,https://www.gotransit.com/en/stations-stops-parking/find-a-station-or-stop/results?stationCode=02683,0,,2,102683
02682,Queen St. @ Mill St.,43.8809995812407,-79.7400896488493,58,https://www.gotransit.com/en/stations-stops-parking/find-a-station-or-stop/results?stationCode=02682,0,,2,102682
02681,Queen St. @ Hickman St.,43.881289458911,-79.7407395455473,58,https://www.gotransit.com/en/stations-stops-parking/find-a-station-or-stop/results?stationCode=02681,0,,2,102681
02680,Bramalea Rd. @ Balmoral Dr.,43.7154679735916,-79.7054676815027,32,https://www.gotransit.com/en/stations-stops-parking/find-a-station-or-stop/results?stationCode=02680,0,,1,102680
02678,Gordon St. @ Clair Rd. W.,43.5003866753456,-80.1893148019381,39,https://www.gotransit.com/en/stations-stops-parking/find-a-station-or-stop/results?stationCode=02678,0,,1,102678
02677,Gordon St. @ Clair Rd. E.,43.5002316951943,-80.1886650066085,39,https://www.gotransit.com/en/stations-stops-parking/find-a-station-or-stop/results?stationCode=02677,0,,2,102677
02676,Dundas St. @ Halls Rd.,43.8710634547294,-78.9813988024596,93,https://www.gotransit.com/en/stations-stops-parking/find-a-station-or-stop/results?stationCode=02676,0,,2,102676
02675,Dundas St. @ Halls Rd.,43.8713052332062,-78.981120567689,93,https://www.gotransit.com/en/stations-stops-parking/find-a-station-or-stop/results?stationCode=02675,0,,2,102675
02674,Hwy 407 Bus Terminal,43.7830713234851,-79.5244458372792,19,https://www.gotransit.com/en/stations-stops-parking/find-a-station-or-stop/results?stationCode=02674,0,,1,102674
02673,Hwy 407 Bus Terminal,43.7830465622674,-79.5232260682288,19,https://www.gotransit.com/en/stations-stops-parking/find-a-station-or-stop/results?stationCode=02673,0,,1,102673
02672,Dundas St. @ Hwy. 412 Park & Ride,43.8769486590634,-78.9812249498338,93,https://www.gotransit.com/en/stations-stops-parking/find-a-station-or-stop/results?stationCode=02672,0,,1,102672
02664,City Centre Dr. @ Duke of York Blvd.,43.5892029044241,-79.6427464480046,20,https://www.gotransit.com/en/stations-stops-parking/find-a-station-or-stop/results?stationCode=02664,0,,2,102664
02663,City Centre Dr. @ Robert Speck Pkwy.,43.594225540709,-79.6392787304937,20,https://www.gotransit.com/en/stations-stops-parking/find-a-station-or-stop/results?stationCode=02663,0,,1,102663
02662,City Centre Dr. @ Robert Speck Pkwy.,43.5947480853453,-79.6397587842478,20,https://www.gotransit.com/en/stations-stops-parking/find-a-station-or-stop/results?stationCode=02662,0,,1,102662
02661,Renforth Transitway Station,43.662995090205,-79.5911181123626,25,https://www.gotransit.com/en/stations-stops-parking/find-a-station-or-stop/results?stationCode=02661,0,,1,102661
02660,Renforth Transitway Station,43.6630754344014,-79.591281189024,25,https://www.gotransit.com/en/stations-stops-parking/find-a-station-or-stop/results?stationCode=02660,0,,1,102660
02659,Dixie Transitway Station,43.6300128947218,-79.6146254772841,25,https://www.gotransit.com/en/stations-stops-parking/find-a-station-or-stop/results?stationCode=02659,0,,1,102659
02658,Dixie Transitway Station,43.6300478663032,-79.6146878930147,25,https://www.gotransit.com/en/stations-stops-parking/find-a-station-or-stop/results?stationCode=02658,0,,1,102658
02655,Hurontario St. @ Fairview Rd.,43.5875907610701,-79.6265046670912,11,https://www.gotransit.com/en/stations-stops-parking/find-a-station-or-stop/results?stationCode=02655,0,,1,102655
02654,Hurontario St. @ Elm Dr.,43.5908331882659,-79.6310144279685,11,https://www.gotransit.com/en/stations-stops-parking/find-a-station-or-stop/results?stationCode=02654,0,,2,102654
02653,Hwy. 10 @ Buena Vista Dr.,43.9218485290721,-80.0830587693037,43,https://www.gotransit.com/en/stations-stops-parking/find-a-station-or-stop/results?stationCode=02653,0,,2,102653
02652,West Harbour GO,43.2660685497468,-79.8659978056508,18,https://www.gotransit.com/en/stations-stops-parking/find-a-station-or-stop/results?stationCode=02652,0,,1,102652
02651,Military Trail. @ Pan Am Dr.,43.7877954094493,-79.1904190458541,89,https://www.gotransit.com/en/stations-stops-parking/find-a-station-or-stop/results?stationCode=02651,0,,1,102651
02650,Military Trail. @ Pan Am Dr.,43.7878560204119,-79.1908919809448,89,https://www.gotransit.com/en/stations-stops-parking/find-a-station-or-stop/results?stationCode=02650,0,,1,102650
02647,Trafalgar Rd. @ Dundas St. E.,43.4877993708847,-79.7192931589981,13,https://www.gotransit.com/en/stations-stops-parking/find-a-station-or-stop/results?stationCode=02647,0,,2,102647
02646,Niagara College,43.1524845920884,-79.166533938966,84,https://www.gotransit.com/en/stations-stops-parking/find-a-station-or-stop/results?stationCode=02646,0,,1,102646
02645,Main St. @ Baker Hill Blvd.,43.9653991754335,-79.2742792341716,74,https://www.gotransit.com/en/stations-stops-parking/find-a-station-or-stop/results?stationCode=02645,0,,2,102645
02644,Main St. @ Ringwood Dr.,43.9650310025184,-79.2749393391483,74,https://www.gotransit.com/en/stations-stops-parking/find-a-station-or-stop/results?stationCode=02644,0,,1,102644
02637,Davis Dr. @ Superior St. (Newmarket GO).,44.0594444,-79.4590073,64,https://www.gotransit.com/en/stations-stops-parking/find-a-station-or-stop/results?stationCode=02637,0,,1,102637
02636,Winston Churchill Transitway Station,43.5417557,-79.7129898,21,https://www.gotransit.com/en/stations-stops-parking/find-a-station-or-stop/results?stationCode=02636,0,,1,102636
02635,Winston Churchill Transitway Station,43.5419006,-79.7131805,21,https://www.gotransit.com/en/stations-stops-parking/find-a-station-or-stop/results?stationCode=02635,0,,1,102635
02634,Davis Dr. @ Superior St. (Newmarket GO).,44.0596123,-79.4592438,64,https://www.gotransit.com/en/stations-stops-parking/find-a-station-or-stop/results?stationCode=02634,0,,1,102634
02633,Mountainview Rd. N. @ Maple Ave.,43.6563339,-79.9114151,35,https://www.gotransit.com/en/stations-stops-parking/find-a-station-or-stop/results?stationCode=02633,0,,2,102633
02631,Hwy. 7A @ 6th Line,44.0956688,-78.9611511,52,https://www.gotransit.com/en/stations-stops-parking/find-a-station-or-stop/results?stationCode=02631,0,,2,102631
02629,Gormley GO,43.9409103,-79.3985214,78,https://www.gotransit.com/en/stations-stops-parking/find-a-station-or-stop/results?stationCode=02629,0,,1,102629
02628,Kingston Rd. @ Brock Rd.,43.8478546,-79.0743408,91,https://www.gotransit.com/en/stations-stops-parking/find-a-station-or-stop/results?stationCode=02628,0,,1,102628
02627,Brock Rd. S. @ Gilmour Rd.,43.466629,-80.1415634,39,https://www.gotransit.com/en/stations-stops-parking/find-a-station-or-stop/results?stationCode=02627,0,,2,102627
02626,Brock Rd. S. @ Gilmour Rd.,43.4668732,-80.1422806,39,https://www.gotransit.com/en/stations-stops-parking/find-a-station-or-stop/results?stationCode=02626,0,,2,102626
02623,Winchester Rd. W. @ Lake Ridge Rd.,43.9403648,-79.0159454,87,https://www.gotransit.com/en/stations-stops-parking/find-a-station-or-stop/results?stationCode=02623,0,,2,102623
02621,Ontario St. @ QEW (Beamsville) Park & Ride,43.1881676,-79.4759598,82,https://www.gotransit.com/en/stations-stops-parking/find-a-station-or-stop/results?stationCode=02621,0,,1,102621
02620,McMaster Innovation Park,43.2564278,-79.9013138,18,https://www.gotransit.com/en/stations-stops-parking/find-a-station-or-stop/results?stationCode=02620,0,,1,102620
02619,McMaster Innovation Park,43.2570114,-79.9015045,18,https://www.gotransit.com/en/stations-stops-parking/find-a-station-or-stop/results?stationCode=02619,0,,1,102619
02617,Brantford Bus Terminal,43.1403084,-80.2649918,85,https://www.gotransit.com/en/stations-stops-parking/find-a-station-or-stop/results?stationCode=02617,0,,1,102617
02616,Colborne St. E. @ Park Ave.,43.1390533,-80.2543106,85,https://www.gotransit.com/en/stations-stops-parking/find-a-station-or-stop/results?stationCode=02616,0,,1,102616
02615,Dalhousie St. @ Park Ave.,43.1400795,-80.2549591,85,https://www.gotransit.com/en/stations-stops-parking/find-a-station-or-stop/results?stationCode=02615,0,,2,102615
02614,Colborne St E. @ Kiwanis Way,43.1404762,-80.2400513,85,https://www.gotransit.com/en/stations-stops-parking/find-a-station-or-stop/results?stationCode=02614,0,,1,102614
02613,Colborne St. E. @ Puleston St.,43.1405792,-80.2406311,85,https://www.gotransit.com/en/stations-stops-parking/find-a-station-or-stop/results?stationCode=02613,0,,1,102613
02612,Wayne Gretzky Pkwy. @ Chatham St.,43.144886,-80.2353592,85,https://www.gotransit.com/en/stations-stops-parking/find-a-station-or-stop/results?stationCode=02612,0,,1,102612
02611,Wayne Gretzky Pkwy. @ Chatham St.,43.1449928,-80.2356873,85,https://www.gotransit.com/en/stations-stops-parking/find-a-station-or-stop/results?stationCode=02611,0,,1,102611
02610,Wayne Gretzky Pkwy. @ Elgin St.,43.1499977,-80.2378159,85,https://www.gotransit.com/en/stations-stops-parking/find-a-station-or-stop/results?stationCode=02610,0,,1,102610
02609,Wayne Gretzky Pkwy. @ Elgin St.,43.1501236,-80.2375336,85,https://www.gotransit.com/en/stations-stops-parking/find-a-station-or-stop/results?stationCode=02609,0,,1,102609
02608,Wayne Gretzky Pkwy. @ Henry St.,43.1544113,-80.2391205,85,https://www.gotransit.com/en/stations-stops-parking/find-a-station-or-stop/results?stationCode=02608,0,,1,102608
02607,Wayne Gretzky Pwky. @ Henry St.,43.1545525,-80.2395554,85,https://www.gotransit.com/en/stations-stops-parking/find-a-station-or-stop/results?stationCode=02607,0,,1,102607
02605,Hespeler Rd. @ Pinebush Rd.,43.4089508,-80.3281174,26,https://www.gotransit.com/en/stations-stops-parking/find-a-station-or-stop/results?stationCode=02605,0,,1,102605
02598,6700 Millcreek Dr. @ Aquitaine Ave.,43.5951157,-79.7525024,22,https://www.gotransit.com/en/stations-stops-parking/find-a-station-or-stop/results?stationCode=02598,0,,1,102598
02597,6715 Millcreek Dr. @ Aquitaine Ave. (Millcreek Business Centre),43.5951004,-79.7512894,22,https://www.gotransit.com/en/stations-stops-parking/find-a-station-or-stop/results?stationCode=02597,0,,1,102597
02596,Yonge St. @ Davis Dr. (Upper Canada Mall),44.0550804,-79.4807053,64,https://www.gotransit.com/en/stations-stops-parking/find-a-station-or-stop/results?stationCode=02596,0,,1,102596
02595,Yonge St. @ Line 11,44.1623192,-79.5767288,66,https://www.gotransit.com/en/stations-stops-parking/find-a-station-or-stop/results?stationCode=02595,0,,2,102595
02594,Yonge St. @ Line 11,44.16325,-79.5767746,66,https://www.gotransit.com/en/stations-stops-parking/find-a-station-or-stop/results?stationCode=02594,0,,2,102594
02593,Yonge St. @ Line 13,44.1866646,-79.5825729,66,https://www.gotransit.com/en/stations-stops-parking/find-a-station-or-stop/results?stationCode=02593,0,,2,102593
02592,Yonge St. @ Line 13,44.1873474,-79.5825195,66,https://www.gotransit.com/en/stations-stops-parking/find-a-station-or-stop/results?stationCode=02592,0,,2,102592
02587,Dupont Meadow Pl. @ Mississauga Rd.,43.6081848,-79.7510834,22,https://www.gotransit.com/en/stations-stops-parking/find-a-station-or-stop/results?stationCode=02587,0,,2,102587
02586,Financial Dr. @ Syntex Crt.,43.611037345833,-79.7488204602084,22,https://www.gotransit.com/en/stations-stops-parking/find-a-station-or-stop/results?stationCode=02586,0,,2,102586
02581,Albert St. S. @ Jones St.,44.2612915,-79.0663376,54,https://www.gotransit.com/en/stations-stops-parking/find-a-station-or-stop/results?stationCode=02581,0,,2,102581
02580,Major Mackenzie Dr. E. @ Cedar Ave.,43.8734169,-79.4278793,50,https://www.gotransit.com/en/stations-stops-parking/find-a-station-or-stop/results?stationCode=02580,0,,1,102580
02579,Major Mackenzie Dr. E. @ Cedar Ave.,43.8731232,-79.4284439,50,https://www.gotransit.com/en/stations-stops-parking/find-a-station-or-stop/results?stationCode=02579,0,,2,102579
02577,Yonge St. @ 4th Line (Churchill Community Centre),44.2538338,-79.6016998,67,https://www.gotransit.com/en/stations-stops-parking/find-a-station-or-stop/results?stationCode=02577,0,,1,102577
02576,Kingston Rd. @ Fairport Rd.,43.8238487,-79.1063309,91,https://www.gotransit.com/en/stations-stops-parking/find-a-station-or-stop/results?stationCode=02576,0,,1,102576
02575,Markham Rd. @ Castlemore Ave.,43.9040985,-79.2667618,73,https://www.gotransit.com/en/stations-stops-parking/find-a-station-or-stop/results?stationCode=02575,0,,1,102575
02574,Markham Rd. @ Castlemore Ave.,43.9044647,-79.2672577,73,https://www.gotransit.com/en/stations-stops-parking/find-a-station-or-stop/results?stationCode=02574,0,,1,102574
02573,Victoria St. @ Thickson Rd. (Thickson Ridge Power Centre),43.8673973,-78.8993225,93,https://www.gotransit.com/en/stations-stops-parking/find-a-station-or-stop/results?stationCode=02573,0,,1,102573
02572,Victoria St. @ Thickson Rd. (Thickson Ridge Power Centre),43.86726,-78.9002914,93,https://www.gotransit.com/en/stations-stops-parking/find-a-station-or-stop/results?stationCode=02572,0,,2,102572
02571,Kingston Rd. @ Glenanna Rd.,43.8386154,-79.0863266,91,https://www.gotransit.com/en/stations-stops-parking/find-a-station-or-stop/results?stationCode=02571,0,,1,102571
02567,Hurontario St. @ Old School Rd.,43.753563,-79.851234,41,https://www.gotransit.com/en/stations-stops-parking/find-a-station-or-stop/results?stationCode=02567,0,,1,102567
02546,Hurontario St. @ Old School Rd.,43.753716,-79.851891,41,https://www.gotransit.com/en/stations-stops-parking/find-a-station-or-stop/results?stationCode=02546,0,,2,102546
02545,Markham Rd. @ Edward Jeffreys Ave.,43.895947,-79.264854,73,https://www.gotransit.com/en/stations-stops-parking/find-a-station-or-stop/results?stationCode=02545,0,,1,102545
02544,Markham Rd. @ Edward Jeffreys Ave.,43.896362,-79.265251,73,https://www.gotransit.com/en/stations-stops-parking/find-a-station-or-stop/results?stationCode=02544,0,,1,102544
02543,Simcoe St. N. @ Parkwood Crt.,43.905807,-78.867111,94,https://www.gotransit.com/en/stations-stops-parking/find-a-station-or-stop/results?stationCode=02543,0,,2,102543
02542,Simcoe St. N. @ Parkwood Crt.,43.905533,-78.867271,94,https://www.gotransit.com/en/stations-stops-parking/find-a-station-or-stop/results?stationCode=02542,0,,1,102542
02541,Morningside Ave. @ Tams Rd.,43.791924,-79.195305,89,https://www.gotransit.com/en/stations-stops-parking/find-a-station-or-stop/results?stationCode=02541,0,,1,102541
02540,Morningside Ave. @ Tams Rd.,43.792179,-79.19574,89,https://www.gotransit.com/en/stations-stops-parking/find-a-station-or-stop/results?stationCode=02540,0,,1,102540
02539,Brock Rd. @ Hwy. 407 Park & Ride,43.912596,-79.097042,86,https://www.gotransit.com/en/stations-stops-parking/find-a-station-or-stop/results?stationCode=02539,0,,1,102539
02538,Davis Dr. @ Hwy. 404 Park & Ride,44.0676956,-79.4215164,64,https://www.gotransit.com/en/stations-stops-parking/find-a-station-or-stop/results?stationCode=02538,0,,1,102538
02537,Barrie St. @ Doctors Lane,44.115643,-79.565002,65,https://www.gotransit.com/en/stations-stops-parking/find-a-station-or-stop/results?stationCode=02537,0,,1,102537
02535,Hwy. 50 @ Ebenezer Rd.,43.777973,-79.654884,56,https://www.gotransit.com/en/stations-stops-parking/find-a-station-or-stop/results?stationCode=02535,0,,1,102535
02534,Hwy. 50 @ Ebenezer Rd.,43.779167,-79.655106,56,https://www.gotransit.com/en/stations-stops-parking/find-a-station-or-stop/results?stationCode=02534,0,,1,102534
02533,Hwy. 50 @ Queen St. E.,43.768192,-79.648849,56,https://www.gotransit.com/en/stations-stops-parking/find-a-station-or-stop/results?stationCode=02533,0,,1,102533
02532,King St. W. @ Scugog St.,43.9128571,-78.6923294,96,https://www.gotransit.com/en/stations-stops-parking/find-a-station-or-stop/results?stationCode=02532,0,,2,102532
02531,Weber St. E. @ Queen St. N.,43.451828,-80.4870758,27,https://www.gotransit.com/en/stations-stops-parking/find-a-station-or-stop/results?stationCode=02531,0,,1,102531
02530,Weber St. W. @ Queen St. N.,43.4519386,-80.4876175,27,https://www.gotransit.com/en/stations-stops-parking/find-a-station-or-stop/results?stationCode=02530,0,,1,102530
02523,Queensville Sdrd. @ Hwy. 404 Park & Ride,44.1420212,-79.4405518,45,https://www.gotransit.com/en/stations-stops-parking/find-a-station-or-stop/results?stationCode=02523,0,,1,102523
02522,Woodbine Ave. @ Hwy. 404 Park & Ride,44.1918488,-79.4372101,46,https://www.gotransit.com/en/stations-stops-parking/find-a-station-or-stop/results?stationCode=02522,0,,1,102522
02521,Wellington St. E. @ Mary St.,44.0031967,-79.451149,63,https://www.gotransit.com/en/stations-stops-parking/find-a-station-or-stop/results?stationCode=02521,0,,2,102521
02520,Wellington St. E. @ John West Way,44.0035057,-79.4506836,63,https://www.gotransit.com/en/stations-stops-parking/find-a-station-or-stop/results?stationCode=02520,0,,1,102520
02519,Guelph Central GO Bus,43.544932,-80.246388,39,https://www.gotransit.com/en/stations-stops-parking/find-a-station-or-stop/results?stationCode=02519,0,,1,102519
02518,MacDonell St. @ Carden St. (Guelph Central GO),43.5463142,-80.2452316,39,https://www.gotransit.com/en/stations-stops-parking/find-a-station-or-stop/results?stationCode=02518,0,,1,102518
02513,Blind Line @ College Ave.,43.9221954,-80.1162033,43,https://www.gotransit.com/en/stations-stops-parking/find-a-station-or-stop/results?stationCode=02513,0,,2,102513
02512,Blind Line @ Hansen Blvd.,43.9247589,-80.1168442,43,https://www.gotransit.com/en/stations-stops-parking/find-a-station-or-stop/results?stationCode=02512,0,,1,102512
02511,Queen St. E. @ West Dr.,43.7095222,-79.733696,32,https://www.gotransit.com/en/stations-stops-parking/find-a-station-or-stop/results?stationCode=02511,0,,2,102511
02508,Derry Rd. W. @ Ninth Line,43.574543,-79.78685,22,https://www.gotransit.com/en/stations-stops-parking/find-a-station-or-stop/results?stationCode=02508,0,,2,102508
02505,Hwy. 35 @ Hwy. 115 Park & Ride,44.064003,-78.6258087,28,https://www.gotransit.com/en/stations-stops-parking/find-a-station-or-stop/results?stationCode=02505,0,,1,102505
02504,Peterborough Rd. 10 @ Hwy. 115 Park & Ride,44.1872025,-78.4643936,29,https://www.gotransit.com/en/stations-stops-parking/find-a-station-or-stop/results?stationCode=02504,0,,1,102504
02503,Crawford Dr. @ Harper Rd. Park & Ride,44.2678642,-78.3492737,30,https://www.gotransit.com/en/stations-stops-parking/find-a-station-or-stop/results?stationCode=02503,0,,1,102503
02502,Peterborough Bus Terminal,44.3045998,-78.3224182,30,https://www.gotransit.com/en/stations-stops-parking/find-a-station-or-stop/results?stationCode=02502,0,,1,102502
02501,Trent University,44.3569412,-78.2870331,30,https://www.gotransit.com/en/stations-stops-parking/find-a-station-or-stop/results?stationCode=02501,0,,1,102501
02414,City Centre Dr. @ Mercer St.,43.5895958,-79.6420135,20,https://www.gotransit.com/en/stations-stops-parking/find-a-station-or-stop/results?stationCode=02414,0,,1,102414
02413,Georgetown GO Bus,43.6560287,-79.9186783,35,https://www.gotransit.com/en/stations-stops-parking/find-a-station-or-stop/results?stationCode=02413,0,,1,102413
02412,Main St. S. @ Ridge Rd.,43.61085,-80.13266,38,https://www.gotransit.com/en/stations-stops-parking/find-a-station-or-stop/results?stationCode=02412,0,,2,102412
02408,Niagara Falls Bus Terminal,43.1085358,-79.0636063,84,https://www.gotransit.com/en/stations-stops-parking/find-a-station-or-stop/results?stationCode=02408,0,,1,102408
02406,Casablanca Blvd. @ QEW Park & Ride,43.2047997,-79.5964279,81,https://www.gotransit.com/en/stations-stops-parking/find-a-station-or-stop/results?stationCode=02406,0,,1,102406
02405,Stanley Ave. @ Hwy. 420 Park & Ride,43.097245,-79.08507,84,https://www.gotransit.com/en/stations-stops-parking/find-a-station-or-stop/results?stationCode=02405,0,,1,102405
02404,Stanley Ave. @ Hwy. 420 Park & Ride,43.097075,-79.084885,84,https://www.gotransit.com/en/stations-stops-parking/find-a-station-or-stop/results?stationCode=02404,0,,1,102404
02402,St. Catharines Fairview Mall,43.178627,-79.2452545,83,https://www.gotransit.com/en/stations-stops-parking/find-a-station-or-stop/results?stationCode=02402,0,,1,102402
02300,Union Station Bus Terminal,43.644042,-79.376939,02,https://www.gotransit.com/en/stations-stops-parking/find-a-station-or-stop/results?stationCode=02300,0,,1,102300
02216,Erin Mills Transitway Station,43.5522194,-79.7003632,21,https://www.gotransit.com/en/stations-stops-parking/find-a-station-or-stop/results?stationCode=02216,0,,1,102216
02215,Erin Mills Transitway Station,43.552124,-79.7004547,21,https://www.gotransit.com/en/stations-stops-parking/find-a-station-or-stop/results?stationCode=02215,0,,1,102215
02214,Erin Mills Transitway Station,43.5520363,-79.7003021,21,https://www.gotransit.com/en/stations-stops-parking/find-a-station-or-stop/results?stationCode=02214,0,,1,102214
02213,Erin Mills Transitway Station,43.552124,-79.7004547,21,https://www.gotransit.com/en/stations-stops-parking/find-a-station-or-stop/results?stationCode=02213,0,,1,102213
02210,Erin Mills Transitway Station,43.5520363,-79.7003021,21,https://www.gotransit.com/en/stations-stops-parking/find-a-station-or-stop/results?stationCode=02210,0,,1,102210
02209,Renforth Dr. @ Convair Dr.,43.6723671,-79.5936432,31,https://www.gotransit.com/en/stations-stops-parking/find-a-station-or-stop/results?stationCode=02209,0,,2,102209
02208,Renforth Dr. @ Convair Dr.,43.6720657,-79.5930939,31,https://www.gotransit.com/en/stations-stops-parking/find-a-station-or-stop/results?stationCode=02208,0,,1,102208
02205,Weber St. E. @ Montgomery Rd.,43.4387054,-80.4595566,27,https://www.gotransit.com/en/stations-stops-parking/find-a-station-or-stop/results?stationCode=02205,0,,2,102205
02204,Weber St. E. @ Montgomery Rd.,43.4387245,-80.4601898,27,https://www.gotransit.com/en/stations-stops-parking/find-a-station-or-stop/results?stationCode=02204,0,,2,102204
02202,Yonge St. @ Victoria St.,44.3249016,-79.6195755,68,https://www.gotransit.com/en/stations-stops-parking/find-a-station-or-stop/results?stationCode=02202,0,,1,102202
02194,Main St. @ Westlawn Cres.,43.9685707,-79.2601318,74,https://www.gotransit.com/en/stations-stops-parking/find-a-station-or-stop/results?stationCode=02194,0,,2,102194
02193,Main St. @ Weldon Rd.,43.9682426,-79.2604752,74,https://www.gotransit.com/en/stations-stops-parking/find-a-station-or-stop/results?stationCode=02193,0,,1,102193
02192,Main St. @ Sandale Rd.,43.9662666,-79.2703018,74,https://www.gotransit.com/en/stations-stops-parking/find-a-station-or-stop/results?stationCode=02192,0,,2,102192
02191,Main St. @ Sandiford Dr.,43.9659386,-79.2708511,74,https://www.gotransit.com/en/stations-stops-parking/find-a-station-or-stop/results?stationCode=02191,0,,1,102191
02190,Hwy. 48 @ Hoover Park Dr.,43.9569321,-79.2795105,74,https://www.gotransit.com/en/stations-stops-parking/find-a-station-or-stop/results?stationCode=02190,0,,2,102190
02189,Hwy. 48 @ Hoover Park Dr.,43.9565964,-79.2791214,74,https://www.gotransit.com/en/stations-stops-parking/find-a-station-or-stop/results?stationCode=02189,0,,2,102189
02186,Kitchener GO Bus,43.455573,-80.492543,27,https://www.gotransit.com/en/stations-stops-parking/find-a-station-or-stop/results?stationCode=02186,0,,1,102186
02185,Main St. W. @ Haddon Ave. S.,43.258091,-79.91185,18,https://www.gotransit.com/en/stations-stops-parking/find-a-station-or-stop/results?stationCode=02185,0,,1,102185
02184,Sportsworld Dr. @ Hwy. 8 Park & Ride,43.4099274,-80.3925095,26,https://www.gotransit.com/en/stations-stops-parking/find-a-station-or-stop/results?stationCode=02184,0,,1,102184
02177,Main St. @ Tenth Line,43.9745674,-79.2321472,74,https://www.gotransit.com/en/stations-stops-parking/find-a-station-or-stop/results?stationCode=02177,0,,2,102177
02176,Keele St. @ Peak Point Blvd.,43.8872604,-79.5200119,62,https://www.gotransit.com/en/stations-stops-parking/find-a-station-or-stop/results?stationCode=02176,0,,2,102176
02175,Keele St. @ Peak Point Blvd.,43.8868027,-79.5196609,62,https://www.gotransit.com/en/stations-stops-parking/find-a-station-or-stop/results?stationCode=02175,0,,1,102175
02174,Williams Pkwy. @ Hwy. 410 Park & Ride,43.716468,-79.751376,32,https://www.gotransit.com/en/stations-stops-parking/find-a-station-or-stop/results?stationCode=02174,0,,1,102174
02173,Keele St. @ Kirby Rd.,43.8918114,-79.5210342,62,https://www.gotransit.com/en/stations-stops-parking/find-a-station-or-stop/results?stationCode=02173,0,,2,102173
02172,Keele St. @ Kirby Rd.,43.8916321,-79.5207977,62,https://www.gotransit.com/en/stations-stops-parking/find-a-station-or-stop/results?stationCode=02172,0,,2,102172
02171,Tenth Line @ Sleepy Hollow Ln.,44.0002556,-79.2371979,74,https://www.gotransit.com/en/stations-stops-parking/find-a-station-or-stop/results?stationCode=02171,0,,2,102171
02170,Tenth Line @ Sleepy Hollow Ln.,44.0000153,-79.2369232,74,https://www.gotransit.com/en/stations-stops-parking/find-a-station-or-stop/results?stationCode=02170,0,,2,102170
02163,Trafalgar Rd. @ Hwy. 407 Park & Ride,43.506545,-79.745813,13,https://www.gotransit.com/en/stations-stops-parking/find-a-station-or-stop/results?stationCode=02163,0,,1,102163
02162,Hwy. 2 @ Hwy. 35/115 Park & Ride,43.91301,-78.612533,97,https://www.gotransit.com/en/stations-stops-parking/find-a-station-or-stop/results?stationCode=02162,0,,1,102162
02160,Bradford GO Bus,44.116654,-79.555752,65,https://www.gotransit.com/en/stations-stops-parking/find-a-station-or-stop/results?stationCode=02160,0,,1,102160
02159,Keele St. @ Church St.,43.852829,-79.5120239,61,https://www.gotransit.com/en/stations-stops-parking/find-a-station-or-stop/results?stationCode=02159,0,,2,102159
02158,Major Mackenzie Dr. E. @ Keele St.,43.8550568,-79.5116119,61,https://www.gotransit.com/en/stations-stops-parking/find-a-station-or-stop/results?stationCode=02158,0,,1,102158
02157,Maple GO Bus,43.859853,-79.505926,61,https://www.gotransit.com/en/stations-stops-parking/find-a-station-or-stop/results?stationCode=02157,0,,1,102157
02153,Wilfrid Laurier University,43.4752655,-80.5272827,27,https://www.gotransit.com/en/stations-stops-parking/find-a-station-or-stop/results?stationCode=02153,0,,2,102153
02151,Regional Rd. 25 @ Hwy. 401 Park & Ride,43.5274849,-79.9038162,24,https://www.gotransit.com/en/stations-stops-parking/find-a-station-or-stop/results?stationCode=02151,0,,1,102151
02150,Cambridge Smart Centre,43.4117165,-80.3236008,26,https://www.gotransit.com/en/stations-stops-parking/find-a-station-or-stop/results?stationCode=02150,0,,2,102150
02148,Wilfrid Laurier University,43.4751816,-80.5279999,27,https://www.gotransit.com/en/stations-stops-parking/find-a-station-or-stop/results?stationCode=02148,0,,1,102148
02145,Yonge St. @ London Rd.,44.0641289,-79.4824982,64,https://www.gotransit.com/en/stations-stops-parking/find-a-station-or-stop/results?stationCode=02145,0,,1,102145
02144,YMCA Blvd. @ Kennedy Rd.,43.8535728,-79.3085709,71,https://www.gotransit.com/en/stations-stops-parking/find-a-station-or-stop/results?stationCode=02144,0,,2,102144
02141,YMCA Blvd. @ Kennedy Rd.,43.8532639,-79.3093185,71,https://www.gotransit.com/en/stations-stops-parking/find-a-station-or-stop/results?stationCode=02141,0,,2,102141
02139,Keele St. @ Barrhill Rd.,43.8502159,-79.5112076,61,https://www.gotransit.com/en/stations-stops-parking/find-a-station-or-stop/results?stationCode=02139,0,,1,102139
02127,Yonge St. @ Clark Ave. E.,43.8069839,-79.4221497,60,https://www.gotransit.com/en/stations-stops-parking/find-a-station-or-stop/results?stationCode=02127,0,,2,102127
02126,Main St. @ Stouffer St.,43.9733505,-79.2380981,74,https://www.gotransit.com/en/stations-stops-parking/find-a-station-or-stop/results?stationCode=02126,0,,2,102126
02118,Yonge St. @ Mortonvale Dr.,44.1003456,-79.4911728,65,https://www.gotransit.com/en/stations-stops-parking/find-a-station-or-stop/results?stationCode=02118,0,,1,102118
02117,Tenth Line @ Aintree Dr.,43.9778366,-79.2319031,74,https://www.gotransit.com/en/stations-stops-parking/find-a-station-or-stop/results?stationCode=02117,0,,2,102117
02116,Queen St. N. @ Columbia Way,43.8915863,-79.754982,58,https://www.gotransit.com/en/stations-stops-parking/find-a-station-or-stop/results?stationCode=02116,0,,2,102116
02113,Hwy. 48 @ 16th Ave.,43.8920631,-79.2641983,73,https://www.gotransit.com/en/stations-stops-parking/find-a-station-or-stop/results?stationCode=02113,0,,2,102113
02112,Main St. N. @ 16th Ave.,43.8919067,-79.2639542,72,https://www.gotransit.com/en/stations-stops-parking/find-a-station-or-stop/results?stationCode=02112,0,,2,102112
02111,Bullock Dr. @ Laidlaw Blvd.,43.8744316,-79.2800446,72,https://www.gotransit.com/en/stations-stops-parking/find-a-station-or-stop/results?stationCode=02111,0,,2,102111
02110,Bullock Dr. @ Laidlaw Blvd.,43.874855,-79.2794647,72,https://www.gotransit.com/en/stations-stops-parking/find-a-station-or-stop/results?stationCode=02110,0,,2,102110
02109,Bullock Dr. @ McCowan Rd.,43.8729172,-79.2848587,72,https://www.gotransit.com/en/stations-stops-parking/find-a-station-or-stop/results?stationCode=02109,0,,2,102109
02108,Bullock Dr. @ McCowan Rd.,43.8728409,-79.2855911,72,https://www.gotransit.com/en/stations-stops-parking/find-a-station-or-stop/results?stationCode=02108,0,,1,102108
02107,Upper Canada Mall,44.0579948,-79.4808884,64,https://www.gotransit.com/en/stations-stops-parking/find-a-station-or-stop/results?stationCode=02107,0,,2,102107
02105,Yonge St. @ Green Ln. W. (Green Lane Centre),44.0712051,-79.4845886,64,https://www.gotransit.com/en/stations-stops-parking/find-a-station-or-stop/results?stationCode=02105,0,,1,102105
02104,Yonge St. @ Green Ln. E. (Silver City),44.0705605,-79.4841385,64,https://www.gotransit.com/en/stations-stops-parking/find-a-station-or-stop/results?stationCode=02104,0,,1,102104
02101,Yonge St. @ Spruce Ave.,43.8511429,-79.4323959,60,https://www.gotransit.com/en/stations-stops-parking/find-a-station-or-stop/results?stationCode=02101,0,,2,102101
02100,Yonge St. @ Yongehurst Dr.,43.8627815,-79.4354706,50,https://www.gotransit.com/en/stations-stops-parking/find-a-station-or-stop/results?stationCode=02100,0,,2,102100
02096,Yonge St. @ Weldrick Rd. W.,43.8605232,-79.4349365,50,https://www.gotransit.com/en/stations-stops-parking/find-a-station-or-stop/results?stationCode=02096,0,,2,102096
02095,Yonge St. @ Weldrick Rd. E.,43.859993,-79.4343033,50,https://www.gotransit.com/en/stations-stops-parking/find-a-station-or-stop/results?stationCode=02095,0,,1,102095
02092,Yonge St. @ Uplands Ave.,43.8269348,-79.4267807,60,https://www.gotransit.com/en/stations-stops-parking/find-a-station-or-stop/results?stationCode=02092,0,,1,102092
02088,Yonge St. @ Thornhill Ave.,43.8253212,-79.4267273,60,https://www.gotransit.com/en/stations-stops-parking/find-a-station-or-stop/results?stationCode=02088,0,,1,102088
02081,Yonge St. @ Scott Dr.,43.8467216,-79.4316711,60,https://www.gotransit.com/en/stations-stops-parking/find-a-station-or-stop/results?stationCode=02081,0,,1,102081
02079,Yonge St. @ Royal Orchard Blvd.,43.8227158,-79.4257965,60,https://www.gotransit.com/en/stations-stops-parking/find-a-station-or-stop/results?stationCode=02079,0,,2,102079
02078,Yonge St. @ Royal Orchard Blvd.,43.8223343,-79.426033,60,https://www.gotransit.com/en/stations-stops-parking/find-a-station-or-stop/results?stationCode=02078,0,,1,102078
02072,Yonge St. @ Observatory Ln.,43.8581696,-79.4340744,50,https://www.gotransit.com/en/stations-stops-parking/find-a-station-or-stop/results?stationCode=02072,0,,1,102072
02071,Yonge St. @ Oak Ave.,43.8500443,-79.4324112,60,https://www.gotransit.com/en/stations-stops-parking/find-a-station-or-stop/results?stationCode=02071,0,,1,102071
02069,Yonge St. @ Northern Heights Dr.,43.849144,-79.4318695,60,https://www.gotransit.com/en/stations-stops-parking/find-a-station-or-stop/results?stationCode=02069,0,,2,102069
02068,Yonge St. @ North St.,44.0976105,-79.4905701,65,https://www.gotransit.com/en/stations-stops-parking/find-a-station-or-stop/results?stationCode=02068,0,,2,102068
02067,Yonge St. @ North St.,44.0978394,-79.4906998,65,https://www.gotransit.com/en/stations-stops-parking/find-a-station-or-stop/results?stationCode=02067,0,,2,102067
02058,Yonge St. @ Meadowview Ave.,43.8020096,-79.4213104,60,https://www.gotransit.com/en/stations-stops-parking/find-a-station-or-stop/results?stationCode=02058,0,,1,102058
02057,Yonge St. @ May Ave.,43.8640823,-79.4357605,50,https://www.gotransit.com/en/stations-stops-parking/find-a-station-or-stop/results?stationCode=02057,0,,2,102057
02056,Yonge St. @ May Ave.,43.8639069,-79.435379,50,https://www.gotransit.com/en/stations-stops-parking/find-a-station-or-stop/results?stationCode=02056,0,,1,102056
02052,Yonge St. @ Major Mackenzie Dr. E.,43.8708229,-79.4369049,50,https://www.gotransit.com/en/stations-stops-parking/find-a-station-or-stop/results?stationCode=02052,0,,2,102052
02046,Yonge St. @ Kingston Rd.,44.0609932,-79.4816971,64,https://www.gotransit.com/en/stations-stops-parking/find-a-station-or-stop/results?stationCode=02046,0,,2,102046
02043,Yonge St. @ John St.,43.8139114,-79.4238434,60,https://www.gotransit.com/en/stations-stops-parking/find-a-station-or-stop/results?stationCode=02043,0,,2,102043
02042,Yonge St. @ Thornridge Dr.,43.8135796,-79.4240112,60,https://www.gotransit.com/en/stations-stops-parking/find-a-station-or-stop/results?stationCode=02042,0,,2,102042
02036,Yonge St. @ Hwy. 407,43.8365974,-79.4293518,60,https://www.gotransit.com/en/stations-stops-parking/find-a-station-or-stop/results?stationCode=02036,0,,2,102036
02035,Yonge St. @ Hopkins St.,43.8696709,-79.4370117,50,https://www.gotransit.com/en/stations-stops-parking/find-a-station-or-stop/results?stationCode=02035,0,,1,102035
02033,Yonge St. @ High Tech Rd.,43.8415108,-79.4304962,60,https://www.gotransit.com/en/stations-stops-parking/find-a-station-or-stop/results?stationCode=02033,0,,2,102033
02032,Yonge St. @ High Tech Rd.,43.8413315,-79.4300156,60,https://www.gotransit.com/en/stations-stops-parking/find-a-station-or-stop/results?stationCode=02032,0,,1,102032
02029,Yonge St. @ Harding Blvd. W.,43.8667831,-79.4363785,50,https://www.gotransit.com/en/stations-stops-parking/find-a-station-or-stop/results?stationCode=02029,0,,2,102029
02028,Yonge St. @ Harding Blvd.,43.8663788,-79.4359741,50,https://www.gotransit.com/en/stations-stops-parking/find-a-station-or-stop/results?stationCode=02028,0,,2,102028
02027,Yonge St. @ Green Ln. E.,44.0726738,-79.4845963,64,https://www.gotransit.com/en/stations-stops-parking/find-a-station-or-stop/results?stationCode=02027,0,,1,102027
02024,Yonge St. @ Glen Cameron Rd.,43.8051033,-79.4217148,60,https://www.gotransit.com/en/stations-stops-parking/find-a-station-or-stop/results?stationCode=02024,0,,1,102024
02023,Yonge St. @ Glen Cameron Rd.,43.8057404,-79.4222031,60,https://www.gotransit.com/en/stations-stops-parking/find-a-station-or-stop/results?stationCode=02023,0,,2,102023
02021,Yonge St. @ Garden Ave.,43.8384552,-79.4297791,60,https://www.gotransit.com/en/stations-stops-parking/find-a-station-or-stop/results?stationCode=02021,0,,1,102021
02019,Yonge St. @ Elmwood Ave.,43.8692818,-79.4366684,50,https://www.gotransit.com/en/stations-stops-parking/find-a-station-or-stop/results?stationCode=02019,0,,2,102019
02018,Yonge St. @ Elgin St.,43.810688,-79.4231033,60,https://www.gotransit.com/en/stations-stops-parking/find-a-station-or-stop/results?stationCode=02018,0,,1,102018
02015,Yonge St. @ Edgar Ave.,43.8484573,-79.4321365,60,https://www.gotransit.com/en/stations-stops-parking/find-a-station-or-stop/results?stationCode=02015,0,,2,102015
02012,Yonge St. @ Doncaster Ave.,43.8016968,-79.4208908,60,https://www.gotransit.com/en/stations-stops-parking/find-a-station-or-stop/results?stationCode=02012,0,,1,102012
02010,Yonge St. @ Dawson Manor Blvd.,44.0614586,-79.4821243,64,https://www.gotransit.com/en/stations-stops-parking/find-a-station-or-stop/results?stationCode=02010,0,,1,102010
02004,Yonge St. @ Clark Ave. W.,43.807312,-79.4226227,60,https://www.gotransit.com/en/stations-stops-parking/find-a-station-or-stop/results?stationCode=02004,0,,1,102004
02003,Yonge St. @ Clarissa Dr.,43.8620453,-79.4350204,50,https://www.gotransit.com/en/stations-stops-parking/find-a-station-or-stop/results?stationCode=02003,0,,1,102003
01998,Yonge St. @ Centre St.,43.8164711,-79.4247208,60,https://www.gotransit.com/en/stations-stops-parking/find-a-station-or-stop/results?stationCode=01998,0,,1,101998
01997,Yonge St. @ Bunker Rd.,43.8288956,-79.4272919,60,https://www.gotransit.com/en/stations-stops-parking/find-a-station-or-stop/results?stationCode=01997,0,,1,101997
01996,Yonge St. @ Bunker Rd.,43.8289528,-79.4275894,60,https://www.gotransit.com/en/stations-stops-parking/find-a-station-or-stop/results?stationCode=01996,0,,1,101996
01994,Yonge St. @ Bristol Rd.,44.0678329,-79.4833374,64,https://www.gotransit.com/en/stations-stops-parking/find-a-station-or-stop/results?stationCode=01994,0,,1,101994
01993,Yonge St. @ Bonshaw Ave.,44.0646324,-79.4830322,64,https://www.gotransit.com/en/stations-stops-parking/find-a-station-or-stop/results?stationCode=01993,0,,1,101993
01988,Yonge St. @ Beresford Dr.,43.8440056,-79.430687,60,https://www.gotransit.com/en/stations-stops-parking/find-a-station-or-stop/results?stationCode=01988,0,,1,101988
01987,Yonge St. @ Bay Thorn Dr.,43.8248672,-79.4262924,60,https://www.gotransit.com/en/stations-stops-parking/find-a-station-or-stop/results?stationCode=01987,0,,1,101987
01986,Yonge St. @ Bantry Ave.,43.846859,-79.4313583,60,https://www.gotransit.com/en/stations-stops-parking/find-a-station-or-stop/results?stationCode=01986,0,,2,101986
01985,Yonge St. @ Baif Blvd. (Hillcrest Mall),43.8587418,-79.4345093,50,https://www.gotransit.com/en/stations-stops-parking/find-a-station-or-stop/results?stationCode=01985,0,,2,101985
01982,Yonge St. @ Aspenwood Dr.,44.0681725,-79.4838028,64,https://www.gotransit.com/en/stations-stops-parking/find-a-station-or-stop/results?stationCode=01982,0,,1,101982
01979,Yonge St. @ Carrville Rd.,43.8532715,-79.4332428,50,https://www.gotransit.com/en/stations-stops-parking/find-a-station-or-stop/results?stationCode=01979,0,,1,101979
01974,Toll Rd. @ Oriole Dr.,44.1052742,-79.5132294,65,https://www.gotransit.com/en/stations-stops-parking/find-a-station-or-stop/results?stationCode=01974,0,,1,101974
01973,Toll Rd. @ Oriole Dr.,44.1051941,-79.5132675,65,https://www.gotransit.com/en/stations-stops-parking/find-a-station-or-stop/results?stationCode=01973,0,,1,101973
01972,Toll Rd. @ Centennial Ave.,44.103157,-79.5050201,65,https://www.gotransit.com/en/stations-stops-parking/find-a-station-or-stop/results?stationCode=01972,0,,1,101972
01971,Toll Rd. @ Centennial Ave.,44.1031227,-79.505188,65,https://www.gotransit.com/en/stations-stops-parking/find-a-station-or-stop/results?stationCode=01971,0,,2,101971
01970,Toll Rd. @ Bradford St.,44.1004219,-79.4975357,65,https://www.gotransit.com/en/stations-stops-parking/find-a-station-or-stop/results?stationCode=01970,0,,1,101970
01969,Toll Rd. @ Bradford St.,44.1004066,-79.4977875,65,https://www.gotransit.com/en/stations-stops-parking/find-a-station-or-stop/results?stationCode=01969,0,,1,101969
01926,Main St. @ Stouffer St.,43.9731178,-79.2386246,74,https://www.gotransit.com/en/stations-stops-parking/find-a-station-or-stop/results?stationCode=01926,0,,2,101926
01925,Main St. @ Market St.,43.9712067,-79.2472229,74,https://www.gotransit.com/en/stations-stops-parking/find-a-station-or-stop/results?stationCode=01925,0,,1,101925
01924,Main St. @ Church St. N.,43.9717598,-79.2452011,74,https://www.gotransit.com/en/stations-stops-parking/find-a-station-or-stop/results?stationCode=01924,0,,2,101924
01905,Langstaff Rd. E. @ Bayview Ave.,43.8346367,-79.4062042,60,https://www.gotransit.com/en/stations-stops-parking/find-a-station-or-stop/results?stationCode=01905,0,,2,101905
01888,Keele St. @ Teston Rd.,43.8732071,-79.5163879,61,https://www.gotransit.com/en/stations-stops-parking/find-a-station-or-stop/results?stationCode=01888,0,,1,101888
01887,Keele St. @ Teston Rd.,43.8736916,-79.5169067,61,https://www.gotransit.com/en/stations-stops-parking/find-a-station-or-stop/results?stationCode=01887,0,,1,101887
01878,Keele St. @ Drummond Dr.,43.8680077,-79.5155106,61,https://www.gotransit.com/en/stations-stops-parking/find-a-station-or-stop/results?stationCode=01878,0,,1,101878
01877,Keele St. @ Drummond Dr.,43.8673172,-79.5149994,61,https://www.gotransit.com/en/stations-stops-parking/find-a-station-or-stop/results?stationCode=01877,0,,1,101877
01861,Hwy. 7 @ Swansea Rd.,43.8641014,-79.2980042,71,https://www.gotransit.com/en/stations-stops-parking/find-a-station-or-stop/results?stationCode=01861,0,,2,101861
01860,Hwy. 7 @ Swansea Rd.,43.8637314,-79.2985458,71,https://www.gotransit.com/en/stations-stops-parking/find-a-station-or-stop/results?stationCode=01860,0,,1,101860
01825,Yonge St. @ Old Yonge St.,44.082943,-79.4870758,65,https://www.gotransit.com/en/stations-stops-parking/find-a-station-or-stop/results?stationCode=01825,0,,1,101825
01807,Bullock Dr. @ Hwy. 7,43.8656082,-79.2921219,71,https://www.gotransit.com/en/stations-stops-parking/find-a-station-or-stop/results?stationCode=01807,0,,2,101807
01806,Bullock Dr. @ Hwy. 7,43.8661575,-79.2920685,71,https://www.gotransit.com/en/stations-stops-parking/find-a-station-or-stop/results?stationCode=01806,0,,2,101806
01805,Bradford St. @ Yonge St.,44.101223,-79.4919434,65,https://www.gotransit.com/en/stations-stops-parking/find-a-station-or-stop/results?stationCode=01805,0,,2,101805
01804,Bradford St. @ Olive St.,44.1012955,-79.49263,65,https://www.gotransit.com/en/stations-stops-parking/find-a-station-or-stop/results?stationCode=01804,0,,1,101804
01803,Bayview Ave. @ Langstaff Rd. E.,43.8349037,-79.4053802,60,https://www.gotransit.com/en/stations-stops-parking/find-a-station-or-stop/results?stationCode=01803,0,,2,101803
01802,Tenth Line @ Aintree Dr.,43.978157,-79.2320175,74,https://www.gotransit.com/en/stations-stops-parking/find-a-station-or-stop/results?stationCode=01802,0,,2,101802
01801,Wellington St. E. @ Stronach Blvd.,44.0072441,-79.4335251,63,https://www.gotransit.com/en/stations-stops-parking/find-a-station-or-stop/results?stationCode=01801,0,,1,101801
01800,Wellington St. E. @ Mavrinac Blvd.,44.0076904,-79.4332504,63,https://www.gotransit.com/en/stations-stops-parking/find-a-station-or-stop/results?stationCode=01800,0,,1,101800
01731,Toronto St. S. @ Mill St.,44.1039429,-79.1250305,76,https://www.gotransit.com/en/stations-stops-parking/find-a-station-or-stop/results?stationCode=01731,0,,2,101731
01730,Toronto St. @ Elgin Park Dr.,44.0970039,-79.1285248,76,https://www.gotransit.com/en/stations-stops-parking/find-a-station-or-stop/results?stationCode=01730,0,,2,101730
01729,Trafalgar Rd. @ Leighland Ave.,43.4647789,-79.6880264,13,https://www.gotransit.com/en/stations-stops-parking/find-a-station-or-stop/results?stationCode=01729,0,,2,101729
01728,Trafalgar Rd. @ Rosegate Way,43.4822998,-79.7117538,13,https://www.gotransit.com/en/stations-stops-parking/find-a-station-or-stop/results?stationCode=01728,0,,2,101728
01727,Trafalgar Rd. @ White Oaks Blvd.,43.4666862,-79.6899948,13,https://www.gotransit.com/en/stations-stops-parking/find-a-station-or-stop/results?stationCode=01727,0,,1,101727
01719,Brock Rd. S. @ Old Brock Rd.,43.4719391,-80.1498718,39,https://www.gotransit.com/en/stations-stops-parking/find-a-station-or-stop/results?stationCode=01719,0,,2,101719
01718,Brock Rd. S. @ Maple Leaf Ln.,43.4715347,-80.1500168,39,https://www.gotransit.com/en/stations-stops-parking/find-a-station-or-stop/results?stationCode=01718,0,,2,101718
01716,Gordon St. @ Clairfields Dr. W.,43.5049019,-80.1943359,39,https://www.gotransit.com/en/stations-stops-parking/find-a-station-or-stop/results?stationCode=01716,0,,1,101716
01715,Gordon St. @ Arkell Rd.,43.5140228,-80.199501,39,https://www.gotransit.com/en/stations-stops-parking/find-a-station-or-stop/results?stationCode=01715,0,,1,101715
01714,Gordon St. @ Arkell Rd.,43.5137901,-80.1998749,39,https://www.gotransit.com/en/stations-stops-parking/find-a-station-or-stop/results?stationCode=01714,0,,1,101714
01713,Gordon St. @ Edinburgh Rd. S.,43.5166702,-80.2031174,39,https://www.gotransit.com/en/stations-stops-parking/find-a-station-or-stop/results?stationCode=01713,0,,1,101713
01712,Gordon St. @ Edinburgh Rd. S.,43.5163383,-80.2033386,39,https://www.gotransit.com/en/stations-stops-parking/find-a-station-or-stop/results?stationCode=01712,0,,1,101712
01711,Gordon St. @ Kortright Rd. E.,43.5224457,-80.2131119,39,https://www.gotransit.com/en/stations-stops-parking/find-a-station-or-stop/results?stationCode=01711,0,,2,101711
01708,Gordon St. @ Stone Rd.,43.5271797,-80.2259216,39,https://www.gotransit.com/en/stations-stops-parking/find-a-station-or-stop/results?stationCode=01708,0,,1,101708
01707,785 York Rd. @ Cityview Dr.,43.5588226,-80.2142868,39,https://www.gotransit.com/en/stations-stops-parking/find-a-station-or-stop/results?stationCode=01707,0,,1,101707
01706,Elizabeth St. @ Victoria Rd. S.,43.5553131,-80.2293396,39,https://www.gotransit.com/en/stations-stops-parking/find-a-station-or-stop/results?stationCode=01706,0,,1,101706
01704,Elizabeth St. @ Stevenson St. S.,43.5527267,-80.23526,39,https://www.gotransit.com/en/stations-stops-parking/find-a-station-or-stop/results?stationCode=01704,0,,1,101704
01703,Elizabeth St. @ Stevenson St. S.,43.5534325,-80.2346191,39,https://www.gotransit.com/en/stations-stops-parking/find-a-station-or-stop/results?stationCode=01703,0,,1,101703
01702,Elizabeth St. @ Beaumont Cr.,43.5560417,-80.2197418,39,https://www.gotransit.com/en/stations-stops-parking/find-a-station-or-stop/results?stationCode=01702,0,,1,101702
01701,Elizabeth St. @ Beaumont Cr.,43.5557289,-80.2199249,39,https://www.gotransit.com/en/stations-stops-parking/find-a-station-or-stop/results?stationCode=01701,0,,1,101701
01662,Yonge St. @ Greenfield Ave.,43.7631454,-79.4112015,05,https://www.gotransit.com/en/stations-stops-parking/find-a-station-or-stop/results?stationCode=01662,0,,1,101662
01661,Yonge St. @ Finch Ave.,43.7804375,-79.4156036,05,https://www.gotransit.com/en/stations-stops-parking/find-a-station-or-stop/results?stationCode=01661,0,,1,101661
01660,Yonge St. @ Empress Ave.,43.7691803,-79.4126587,05,https://www.gotransit.com/en/stations-stops-parking/find-a-station-or-stop/results?stationCode=01660,0,,2,101660
01659,Toronto St. S. @ Banff Rd.,44.0937347,-79.1310883,76,https://www.gotransit.com/en/stations-stops-parking/find-a-station-or-stop/results?stationCode=01659,0,,2,101659
01658,Toronto St. S. @ Banff Rd.,44.0940247,-79.1305542,76,https://www.gotransit.com/en/stations-stops-parking/find-a-station-or-stop/results?stationCode=01658,0,,2,101658
01657,Yonge St. @ William Carson Cr.,43.7471085,-79.4072647,05,https://www.gotransit.com/en/stations-stops-parking/find-a-station-or-stop/results?stationCode=01657,0,,1,101657
01655,Yonge St. @ Norton Ave.,43.7721901,-79.4134216,05,https://www.gotransit.com/en/stations-stops-parking/find-a-station-or-stop/results?stationCode=01655,0,,2,101655
01654,Yonge St. @ Ellerslie Ave.,43.7724152,-79.4139328,05,https://www.gotransit.com/en/stations-stops-parking/find-a-station-or-stop/results?stationCode=01654,0,,1,101654
01653,Yonge St. @ Elmwood Ave.,43.7664719,-79.4120407,05,https://www.gotransit.com/en/stations-stops-parking/find-a-station-or-stop/results?stationCode=01653,0,,1,101653
01652,Yonge St. @ Madawaska Ave.,43.7941246,-79.4189682,05,https://www.gotransit.com/en/stations-stops-parking/find-a-station-or-stop/results?stationCode=01652,0,,1,101652
01651,Yonge St. @ Kempford Blvd.,43.777153,-79.4150925,05,https://www.gotransit.com/en/stations-stops-parking/find-a-station-or-stop/results?stationCode=01651,0,,1,101651
01650,Yonge St. @ Northtown Way,43.7753067,-79.4142609,05,https://www.gotransit.com/en/stations-stops-parking/find-a-station-or-stop/results?stationCode=01650,0,,1,101650
01648,Yonge St. @ Glendora Ave.,43.7586899,-79.4100418,05,https://www.gotransit.com/en/stations-stops-parking/find-a-station-or-stop/results?stationCode=01648,0,,2,101648
01647,Yonge St. @ Florence Ave.,43.7582703,-79.4102325,05,https://www.gotransit.com/en/stations-stops-parking/find-a-station-or-stop/results?stationCode=01647,0,,1,101647
01646,Yonge St. @ Drewry Ave.,43.7871094,-79.4175034,05,https://www.gotransit.com/en/stations-stops-parking/find-a-station-or-stop/results?stationCode=01646,0,,2,101646
01645,Yonge St. @ Cummer Ave.,43.7875671,-79.4172745,05,https://www.gotransit.com/en/stations-stops-parking/find-a-station-or-stop/results?stationCode=01645,0,,1,101645
01644,Yonge St. @ Churchill Ave.,43.7741737,-79.4143219,05,https://www.gotransit.com/en/stations-stops-parking/find-a-station-or-stop/results?stationCode=01644,0,,1,101644
01546,Yonge St. @ Big Bay Point Rd.,44.3565178,-79.6470184,68,https://www.gotransit.com/en/stations-stops-parking/find-a-station-or-stop/results?stationCode=01546,0,,2,101546
01544,Wellington St. E. @ First Commerce Dr.,44.0118065,-79.4146194,63,https://www.gotransit.com/en/stations-stops-parking/find-a-station-or-stop/results?stationCode=01544,0,,2,101544
01543,Wellington St. E. @ First Commerce Dr.,44.0122299,-79.4139557,63,https://www.gotransit.com/en/stations-stops-parking/find-a-station-or-stop/results?stationCode=01543,0,,1,101543
01538,Yonge St. @ Glenn Ave.,44.3280373,-79.6202011,68,https://www.gotransit.com/en/stations-stops-parking/find-a-station-or-stop/results?stationCode=01538,0,,1,101538
01537,Yonge St. @ Meadowland St.,44.2575531,-79.6023865,67,https://www.gotransit.com/en/stations-stops-parking/find-a-station-or-stop/results?stationCode=01537,0,,2,101537
01536,Yonge St. @ Madelaine Dr.,44.3546944,-79.641861,68,https://www.gotransit.com/en/stations-stops-parking/find-a-station-or-stop/results?stationCode=01536,0,,1,101536
01535,Yonge St. @ Lynn St.,44.3294563,-79.6208115,68,https://www.gotransit.com/en/stations-stops-parking/find-a-station-or-stop/results?stationCode=01535,0,,1,101535
01534,Yonge St. @ Lynn St.,44.3300591,-79.6207199,68,https://www.gotransit.com/en/stations-stops-parking/find-a-station-or-stop/results?stationCode=01534,0,,1,101534
01532,Yonge St. @ Little Ave.,44.3664589,-79.6624603,68,https://www.gotransit.com/en/stations-stops-parking/find-a-station-or-stop/results?stationCode=01532,0,,1,101532
01531,Yonge St. @ Innisfil Beach Rd.,44.2993431,-79.6134796,67,https://www.gotransit.com/en/stations-stops-parking/find-a-station-or-stop/results?stationCode=01531,0,,2,101531
01528,Yonge St. @ Esther Dr.,44.3528137,-79.6365738,68,https://www.gotransit.com/en/stations-stops-parking/find-a-station-or-stop/results?stationCode=01528,0,,1,101528
01527,Yonge St. @ Esther Dr.,44.3527412,-79.6358337,68,https://www.gotransit.com/en/stations-stops-parking/find-a-station-or-stop/results?stationCode=01527,0,,2,101527
01526,Yonge St. @ Country Ln.,44.3517113,-79.6335144,68,https://www.gotransit.com/en/stations-stops-parking/find-a-station-or-stop/results?stationCode=01526,0,,2,101526
01525,Yonge St. @ Country Ln.,44.3516769,-79.6328354,68,https://www.gotransit.com/en/stations-stops-parking/find-a-station-or-stop/results?stationCode=01525,0,,2,101525
01524,Yonge St. @ Big Bay Point Rd.,44.356678,-79.6467361,68,https://www.gotransit.com/en/stations-stops-parking/find-a-station-or-stop/results?stationCode=01524,0,,2,101524
01522,Yonge St. @ Innisfil Beach Rd.,44.2995491,-79.6132584,67,https://www.gotransit.com/en/stations-stops-parking/find-a-station-or-stop/results?stationCode=01522,0,,1,101522
01521,Yonge St. @ Ashford Dr.,44.3546104,-79.6410599,68,https://www.gotransit.com/en/stations-stops-parking/find-a-station-or-stop/results?stationCode=01521,0,,1,101521
01516,Hwy. 11 @ Meadowland St.,44.2579079,-79.6026535,67,https://www.gotransit.com/en/stations-stops-parking/find-a-station-or-stop/results?stationCode=01516,0,,2,101516
01515,Holland St. E. @ Colborne St.,44.1152649,-79.5600662,65,https://www.gotransit.com/en/stations-stops-parking/find-a-station-or-stop/results?stationCode=01515,0,,1,101515
01514,Holland St. E. @ Colborne St.,44.115345,-79.5606918,65,https://www.gotransit.com/en/stations-stops-parking/find-a-station-or-stop/results?stationCode=01514,0,,2,101514
01508,Burton Ave. @ Bayview Dr.,44.3711433,-79.6843719,69,https://www.gotransit.com/en/stations-stops-parking/find-a-station-or-stop/results?stationCode=01508,0,,1,101508
01507,Barrie St. @ Fletcher St.,44.1208191,-79.5665207,65,https://www.gotransit.com/en/stations-stops-parking/find-a-station-or-stop/results?stationCode=01507,0,,2,101507
01506,Barrie St. @ Britannia Ave.,44.1205559,-79.5662613,65,https://www.gotransit.com/en/stations-stops-parking/find-a-station-or-stop/results?stationCode=01506,0,,2,101506
01505,Barrie St. @ 8th Line,44.1266556,-79.5680771,66,https://www.gotransit.com/en/stations-stops-parking/find-a-station-or-stop/results?stationCode=01505,0,,2,101505
01504,Barrie St. @ 8th Line,44.1262932,-79.5678711,65,https://www.gotransit.com/en/stations-stops-parking/find-a-station-or-stop/results?stationCode=01504,0,,2,101504
01488,Hurontario St. @ Travelled Rd.,43.8550072,-79.9889755,42,https://www.gotransit.com/en/stations-stops-parking/find-a-station-or-stop/results?stationCode=01488,0,,2,101488
01487,Hurontario St. @ Travelled Rd.,43.8551598,-79.9887848,42,https://www.gotransit.com/en/stations-stops-parking/find-a-station-or-stop/results?stationCode=01487,0,,1,101487
01483,Winston Churchill Blvd. @ Vanderbilt Rd.,43.5848999,-79.7667999,22,https://www.gotransit.com/en/stations-stops-parking/find-a-station-or-stop/results?stationCode=01483,0,,1,101483
01482,Winston Churchill Blvd. @ Derry Rd. W.,43.5865669,-79.7686844,22,https://www.gotransit.com/en/stations-stops-parking/find-a-station-or-stop/results?stationCode=01482,0,,1,101482
01481,Derry Rd. W. @ Winston Churchill Blvd.,43.5877228,-79.7712631,22,https://www.gotransit.com/en/stations-stops-parking/find-a-station-or-stop/results?stationCode=01481,0,,1,101481
01462,Main St. N. @ Bovaird Dr. W.,43.7049713,-79.7861862,33,https://www.gotransit.com/en/stations-stops-parking/find-a-station-or-stop/results?stationCode=01462,0,,1,101462
01459,Steeles Ave. E. @ First Gulf Blvd.,43.6811714,-79.7163315,33,https://www.gotransit.com/en/stations-stops-parking/find-a-station-or-stop/results?stationCode=01459,0,,1,101459
01455,Erin Mills Pkwy. @ Vista Blvd.,43.5736008,-79.7274475,21,https://www.gotransit.com/en/stations-stops-parking/find-a-station-or-stop/results?stationCode=01455,0,,2,101455
01454,Main St. N. @ Williams Pkwy.,43.6986389,-79.7768326,33,https://www.gotransit.com/en/stations-stops-parking/find-a-station-or-stop/results?stationCode=01454,0,,1,101454
01452,Hurontario St. @ Sandalwood Pkwy. E.,43.7181053,-79.8032684,33,https://www.gotransit.com/en/stations-stops-parking/find-a-station-or-stop/results?stationCode=01452,0,,1,101452
01448,Mayfield Rd. @ Hwy. 50 Park & Ride,43.8466263,-79.6971207,56,https://www.gotransit.com/en/stations-stops-parking/find-a-station-or-stop/results?stationCode=01448,0,,1,101448
01447,Erin Mills Pkwy. @ Banfield Rd.,43.567482,-79.7188568,21,https://www.gotransit.com/en/stations-stops-parking/find-a-station-or-stop/results?stationCode=01447,0,,2,101447
01446,Erin Mills Pkwy. @ McFarren Blvd.,43.5677757,-79.7184906,21,https://www.gotransit.com/en/stations-stops-parking/find-a-station-or-stop/results?stationCode=01446,0,,2,101446
01445,Eglinton Ave. W. @ Summersky Crt.,43.5625381,-79.7030792,21,https://www.gotransit.com/en/stations-stops-parking/find-a-station-or-stop/results?stationCode=01445,0,,2,101445
01444,Eglinton Ave. W. @ Credit Valley Rd.,43.5619164,-79.7030182,21,https://www.gotransit.com/en/stations-stops-parking/find-a-station-or-stop/results?stationCode=01444,0,,2,101444
01441,Trafalgar Rd. @ Burnhamthorpe Rd.,43.5017662,-79.7387924,13,https://www.gotransit.com/en/stations-stops-parking/find-a-station-or-stop/results?stationCode=01441,0,,2,101441
01440,Mississauga Rd. @ Royal Bank Dr.,43.6087875,-79.7501144,22,https://www.gotransit.com/en/stations-stops-parking/find-a-station-or-stop/results?stationCode=01440,0,,1,101440
01439,Mississauga Rd. @ Argentia Rd.,43.6013832,-79.7402344,22,https://www.gotransit.com/en/stations-stops-parking/find-a-station-or-stop/results?stationCode=01439,0,,2,101439
01438,Mississauga Rd. @ Dupont Meadow Place,43.6087685,-79.7508469,22,https://www.gotransit.com/en/stations-stops-parking/find-a-station-or-stop/results?stationCode=01438,0,,1,101438
01436,Streetsville GO Station Parking Lot,43.5774536,-79.7130508,21,https://www.gotransit.com/en/stations-stops-parking/find-a-station-or-stop/results?stationCode=01436,0,,1,101436
01435,Trafalgar Rd. @ Burnhamthorpe Rd.,43.5013275,-79.7375031,13,https://www.gotransit.com/en/stations-stops-parking/find-a-station-or-stop/results?stationCode=01435,0,,2,101435
01426,Main St. N. @ Vodden St. W.,43.6926956,-79.7692566,33,https://www.gotransit.com/en/stations-stops-parking/find-a-station-or-stop/results?stationCode=01426,0,,1,101426
01410,Regional Rd. 50 @ Cross Country Blvd.,43.8875618,-79.7492142,58,https://www.gotransit.com/en/stations-stops-parking/find-a-station-or-stop/results?stationCode=01410,0,,2,101410
01409,Regional Rd. 50 @ Bolton Heights Dr.,43.8874474,-79.7487717,58,https://www.gotransit.com/en/stations-stops-parking/find-a-station-or-stop/results?stationCode=01409,0,,2,101409
01408,Regional Rd. 50 @ Queensgate Blvd.,43.8690186,-79.7237167,58,https://www.gotransit.com/en/stations-stops-parking/find-a-station-or-stop/results?stationCode=01408,0,,2,101408
01407,Regional Rd. 50 @ Queensgate Blvd.,43.8689957,-79.7231979,58,https://www.gotransit.com/en/stations-stops-parking/find-a-station-or-stop/results?stationCode=01407,0,,2,101407
01406,Hwy. 50 @ McEwan Dr.,43.8615036,-79.7133408,58,https://www.gotransit.com/en/stations-stops-parking/find-a-station-or-stop/results?stationCode=01406,0,,2,101406
01405,Hwy. 50 @ McEwan Dr.,43.8615341,-79.7127533,58,https://www.gotransit.com/en/stations-stops-parking/find-a-station-or-stop/results?stationCode=01405,0,,1,101405
01404,Regional Rd. 50 @ George Bolton Pkwy.,43.8573799,-79.707756,58,https://www.gotransit.com/en/stations-stops-parking/find-a-station-or-stop/results?stationCode=01404,0,,2,101404
01403,Regional Rd. 50 @ George Bolton Pkwy.,43.8573532,-79.7071075,58,https://www.gotransit.com/en/stations-stops-parking/find-a-station-or-stop/results?stationCode=01403,0,,2,101403
01402,Regional Rd. 50 @ Countryside Dr.,43.8368378,-79.6890564,56,https://www.gotransit.com/en/stations-stops-parking/find-a-station-or-stop/results?stationCode=01402,0,,2,101402
01398,Hwy. 50 @ Cottrelle Blvd.,43.78421,-79.65847,56,https://www.gotransit.com/en/stations-stops-parking/find-a-station-or-stop/results?stationCode=01398,0,,1,101398
01394,Albion Rd. @ Steeles Ave. W.,43.7499313,-79.639595,32,https://www.gotransit.com/en/stations-stops-parking/find-a-station-or-stop/results?stationCode=01394,0,,2,101394
01393,Albion Rd. @ Steeles Ave. W.,43.7503242,-79.6393509,32,https://www.gotransit.com/en/stations-stops-parking/find-a-station-or-stop/results?stationCode=01393,0,,2,101393
01385,Thomas St. @ Erin Mills Pkwy.,43.5702477,-79.7223434,21,https://www.gotransit.com/en/stations-stops-parking/find-a-station-or-stop/results?stationCode=01385,0,,1,101385
01384,Thomas St. @ Erin Mills Pkwy.,43.5701637,-79.722023,21,https://www.gotransit.com/en/stations-stops-parking/find-a-station-or-stop/results?stationCode=01384,0,,1,101384
01374,Steeles Ave. E. @ Kennedy Rd. S.,43.6751747,-79.7234573,33,https://www.gotransit.com/en/stations-stops-parking/find-a-station-or-stop/results?stationCode=01374,0,,2,101374
01373,Steeles Ave. E. @ Kennedy Rd. S.,43.6759148,-79.7218475,33,https://www.gotransit.com/en/stations-stops-parking/find-a-station-or-stop/results?stationCode=01373,0,,1,101373
01363,Rathburn Rd. W. @ Elora Dr.,43.5863609,-79.6529465,20,https://www.gotransit.com/en/stations-stops-parking/find-a-station-or-stop/results?stationCode=01363,0,,2,101363
01362,Rathburn Rd. W. @ Mavis Rd.,43.5833244,-79.6550674,20,https://www.gotransit.com/en/stations-stops-parking/find-a-station-or-stop/results?stationCode=01362,0,,1,101362
01361,Rathburn Rd. W. @ Mavis Rd.,43.5826874,-79.6553574,20,https://www.gotransit.com/en/stations-stops-parking/find-a-station-or-stop/results?stationCode=01361,0,,2,101361
01360,Rathburn Rd. W. @ Elora Dr.,43.5850639,-79.6535568,20,https://www.gotransit.com/en/stations-stops-parking/find-a-station-or-stop/results?stationCode=01360,0,,2,101360
01359,Rathburn Rd. W. @ Elora Dr.,43.5884743,-79.6525726,20,https://www.gotransit.com/en/stations-stops-parking/find-a-station-or-stop/results?stationCode=01359,0,,1,101359
01358,Rathburn Rd. W. @ Elora Dr.,43.5875092,-79.6525726,20,https://www.gotransit.com/en/stations-stops-parking/find-a-station-or-stop/results?stationCode=01358,0,,1,101358
01357,Rathburn Rd. W. @ Elora Dr.,43.5843239,-79.6536331,20,https://www.gotransit.com/en/stations-stops-parking/find-a-station-or-stop/results?stationCode=01357,0,,1,101357
01356,Rathburn Rd. W. @ Creditview Rd.,43.569828,-79.6690521,40,https://www.gotransit.com/en/stations-stops-parking/find-a-station-or-stop/results?stationCode=01356,0,,1,101356
01349,Queen St. E. @ Laurelcrest St.,43.7084885,-79.7353745,33,https://www.gotransit.com/en/stations-stops-parking/find-a-station-or-stop/results?stationCode=01349,0,,1,101349
01346,Queen St. S. @ Shore St.,43.8749657,-79.7319031,58,https://www.gotransit.com/en/stations-stops-parking/find-a-station-or-stop/results?stationCode=01346,0,,2,101346
01344,Queen St. E. @ Rutherford Rd. N.,43.7016296,-79.7429504,33,https://www.gotransit.com/en/stations-stops-parking/find-a-station-or-stop/results?stationCode=01344,0,,2,101344
01343,Queen St. E. @ Rutherford Rd. S.,43.7015877,-79.7425995,33,https://www.gotransit.com/en/stations-stops-parking/find-a-station-or-stop/results?stationCode=01343,0,,2,101343
01335,Queen St. S. @ Downey Dr.,43.8749619,-79.7316437,58,https://www.gotransit.com/en/stations-stops-parking/find-a-station-or-stop/results?stationCode=01335,0,,2,101335
01334,Queen St. E. @ Centre St. N.,43.6910973,-79.754631,33,https://www.gotransit.com/en/stations-stops-parking/find-a-station-or-stop/results?stationCode=01334,0,,2,101334
01327,Millcreek Dr. @ Millrace Crt.,43.5925064,-79.7460556,22,https://www.gotransit.com/en/stations-stops-parking/find-a-station-or-stop/results?stationCode=01327,0,,1,101327
01326,Millcreek Dr. @ Millrace Crt.,43.5927086,-79.7469559,22,https://www.gotransit.com/en/stations-stops-parking/find-a-station-or-stop/results?stationCode=01326,0,,1,101326
01325,Millcreek Dr. @ Erin Mills Pkwy.,43.5904884,-79.7418976,22,https://www.gotransit.com/en/stations-stops-parking/find-a-station-or-stop/results?stationCode=01325,0,,1,101325
01322,Main St. N. @ Williams Pkwy.,43.6990433,-79.7777634,33,https://www.gotransit.com/en/stations-stops-parking/find-a-station-or-stop/results?stationCode=01322,0,,1,101322
01321,Main St. N. @ Vodden St. E.,43.6925087,-79.7685547,33,https://www.gotransit.com/en/stations-stops-parking/find-a-station-or-stop/results?stationCode=01321,0,,1,101321
01317,Main St. S. @ Nanwood Dr.,43.6763763,-79.7472763,33,https://www.gotransit.com/en/stations-stops-parking/find-a-station-or-stop/results?stationCode=01317,0,,1,101317
01313,Main St. S. @ Wellington St. E.,43.6844635,-79.7582321,33,https://www.gotransit.com/en/stations-stops-parking/find-a-station-or-stop/results?stationCode=01313,0,,1,101313
01311,Wellington St. W. @ George St. S.,43.6841316,-79.7590332,33,https://www.gotransit.com/en/stations-stops-parking/find-a-station-or-stop/results?stationCode=01311,0,,2,101311
01308,Main St. S. @ Elgin Dr.,43.6736908,-79.743866,33,https://www.gotransit.com/en/stations-stops-parking/find-a-station-or-stop/results?stationCode=01308,0,,2,101308
01307,Main St. S. @ Elgin Dr.,43.6734314,-79.7431564,33,https://www.gotransit.com/en/stations-stops-parking/find-a-station-or-stop/results?stationCode=01307,0,,1,101307
01306,Main St. S. @ Clarence St.,43.6800728,-79.752037,33,https://www.gotransit.com/en/stations-stops-parking/find-a-station-or-stop/results?stationCode=01306,0,,2,101306
01294,Hwy. 10 @ Dufferin Rd.,43.9159317,-80.0721436,43,https://www.gotransit.com/en/stations-stops-parking/find-a-station-or-stop/results?stationCode=01294,0,,2,101294
01292,Hurontario St. @ Travelled Rd.,43.8571777,-79.9916916,42,https://www.gotransit.com/en/stations-stops-parking/find-a-station-or-stop/results?stationCode=01292,0,,1,101292
01291,Hurontario St. @ Terry St.,43.8870239,-80.0324097,43,https://www.gotransit.com/en/stations-stops-parking/find-a-station-or-stop/results?stationCode=01291,0,,1,101291
01290,Hurontario St. @ Terry St.,43.8870316,-80.0319824,43,https://www.gotransit.com/en/stations-stops-parking/find-a-station-or-stop/results?stationCode=01290,0,,1,101290
01289,Hurontario St. @ Olde Baseline Rd.,43.8008842,-79.9158249,42,https://www.gotransit.com/en/stations-stops-parking/find-a-station-or-stop/results?stationCode=01289,0,,2,101289
01288,Hurontario St. @ Olde Baseline Rd.,43.8009415,-79.9153137,42,https://www.gotransit.com/en/stations-stops-parking/find-a-station-or-stop/results?stationCode=01288,0,,1,101288
01286,Hurontario St. @ Mistywood Dr.,43.8640289,-80.0011749,42,https://www.gotransit.com/en/stations-stops-parking/find-a-station-or-stop/results?stationCode=01286,0,,2,101286
01285,Hurontario St. @ McCannell Ave.,43.9154625,-80.0709457,43,https://www.gotransit.com/en/stations-stops-parking/find-a-station-or-stop/results?stationCode=01285,0,,1,101285
01284,Hurontario St. @ Forks of The Credit Rd.,43.8327255,-79.9588242,42,https://www.gotransit.com/en/stations-stops-parking/find-a-station-or-stop/results?stationCode=01284,0,,2,101284
01283,Hurontario St. @ Forks of The Credit Rd.,43.8325996,-79.9580383,42,https://www.gotransit.com/en/stations-stops-parking/find-a-station-or-stop/results?stationCode=01283,0,,2,101283
01282,Hurontario St. @ Chester Dr.,43.8635445,-80.0002823,42,https://www.gotransit.com/en/stations-stops-parking/find-a-station-or-stop/results?stationCode=01282,0,,2,101282
01281,Hurontario St. @ Boston Mills Rd.,43.7933197,-79.905365,41,https://www.gotransit.com/en/stations-stops-parking/find-a-station-or-stop/results?stationCode=01281,0,,1,101281
01280,Hurontario St. @ Boston Mills Rd.,43.7932968,-79.9048004,41,https://www.gotransit.com/en/stations-stops-parking/find-a-station-or-stop/results?stationCode=01280,0,,2,101280
01279,Hwy. 10 @ 4th Ave.,43.9273758,-80.0888596,43,https://www.gotransit.com/en/stations-stops-parking/find-a-station-or-stop/results?stationCode=01279,0,,2,101279
01276,Hurontario St. @ Wanless Dr.,43.7261734,-79.8145447,33,https://www.gotransit.com/en/stations-stops-parking/find-a-station-or-stop/results?stationCode=01276,0,,2,101276
01271,Hurontario St. @ Sandalwood Pkwy. W.,43.7173424,-79.8027267,33,https://www.gotransit.com/en/stations-stops-parking/find-a-station-or-stop/results?stationCode=01271,0,,1,101271
01261,Hurontario St. @ Conservation Dr.,43.7256508,-79.8135529,33,https://www.gotransit.com/en/stations-stops-parking/find-a-station-or-stop/results?stationCode=01261,0,,1,101261
01258,Hurontario St. @ Bovaird Dr. W.,43.70655,-79.78753,33,https://www.gotransit.com/en/stations-stops-parking/find-a-station-or-stop/results?stationCode=01258,0,,1,101258
01256,Hansen Blvd. @ Scott Dr.,43.9273224,-80.113327,43,https://www.gotransit.com/en/stations-stops-parking/find-a-station-or-stop/results?stationCode=01256,0,,2,101256
01255,Hansen Blvd. @ Michael Dr.,43.9295616,-80.1105499,43,https://www.gotransit.com/en/stations-stops-parking/find-a-station-or-stop/results?stationCode=01255,0,,2,101255
